sector,name,phone,phone_type,email,email_verified,email_source,website,address,postcode,city,opening_hours,extracted_at,latitude,longitude
accountant,Abaci,+34932176882,fijo,adrian.gallego@abaci.es,True,website,https://www.abaci.es/,"Carrer de Balmes 191, 5º 4ª",,,,2026-06-28,41.3968224,2.1522087
accountant,MGA Consultant Derecho & Finanzas,+34933871916,fijo,,,,,Carrer de Casp 56,08010,Barcelona,,2026-06-28,41.3916071,2.1739358
accountant,Consultoria Mateos,+34934097530,fijo,,,,,Carrer de Portbou 54,08028,Barcelona,,2026-06-28,41.377565,2.1264673
accountant,Uson Assessors,,,,,,,"Plaça de Gal·la Placídia 11, 1º 1ª",,,,2026-06-28,41.3989302,2.1525005
accountant,Conta & Fin,,,,,,,Avinguda Diagonal 474,,,,2026-06-28,41.3961748,2.1559187
accountant,3D & Van Der,,,,,,,Carrer del Cigne 7,,,,2026-06-28,41.4006002,2.1541279
accountant,Gestoria Santiveri,,,,,,,Carrer de Provença 222,,Barcelona,,2026-06-28,41.3908727,2.1567752
accountant,F Assessor,,,,,,,,,,,2026-06-28,41.3919,2.1445
accountant,Alpha Espai,,,,,,,,,,,2026-06-28,41.4045886,2.203157
architect,Vora Arquitectura,+34935533919,fijo,vora@vora.cat,True,osm,https://www.vora.cat/,Carrer de Sant Pere Més Alt 62,08003,Barcelona,,2026-06-28,41.3888835,2.1776017
architect,Raons Públiques,+34931814025,fijo,info@raonspubliques.org,True,osm,http://raonspubliques.org/,Carrer de la Concòrdia 30,08004,Barcelona,,2026-06-28,41.3735621,2.1601495
architect,Lacol,+34931720677,fijo,info@lacol.coop,True,osm,https://www.lacol.coop/,Riera d'Escuder 28,08028,Barcelona,Mo-Fr 09:00-18:00,2026-06-28,41.3759149,2.1320986
architect,Traçat,+34932184933,fijo,trasat@trasat.com,True,osm,http://www.trasat.com/es,"Carrer de Balmes 228-230, 4º 2ª",,,,2026-06-28,41.3989387,2.1511423
architect,Franc Fernandez,+34667511920,movil,franc@francfernandez.es,True,osm,https://www.francfernandez.es/arquitectura/,"Carrer d'Aribau 230-240, 5º H",,,,2026-06-28,41.3958926,2.1501463
architect,Zaga,+34933012485,fijo,hello@zaga.com.es,True,osm,https://zaga.com.es/,"Avinguda Diagonal 484-486, 4º 1ª",,,,2026-06-28,41.3957656,2.15505
architect,Area Urbana,+34934160743,fijo,areaurbana@coac.es,True,osm,https://ca.areaur.com/,"Carrer de Balmes 152, 6º 5ª",,,,2026-06-28,41.3945319,2.1562159
architect,Fernando Agustí Dominguez,+34932171913,fijo,fernando.agusti@coac.net,True,osm,http://www.faarq.es/,"Carrer de Balmes 184, 2º 1ª",,,,2026-06-28,41.396558,2.1535624
architect,B\TA,+34934585804,fijo,bta@bta.cat,True,osm,https://bta.cat/,"Avinguda Diagonal 538, 3º 1ª",,,,2026-06-28,41.394768,2.1514645
architect,Ferrés,+34932417711,fijo,proyectos@ferresarquitectos.com,True,osm,https://ferresarquitectos.com/about.html,Carrer de Regàs 3,,,,2026-06-28,41.3983603,2.1523713
architect,Emba_Estudi Massip-Bosch Architects,+34932112268,fijo,emba@emba.cat,True,website,https://www.emba.cat/,Carrer de Muntaner 400,08006,Barcelona,Mo-Fr 09:00-18:00,2026-06-28,41.4001337,2.1417761
architect,Pujadó Soler Arquitectura y Edificación,+34932208141,fijo,info@pujado-soler.com,True,osm,https://pujado-soler.com,Carrer de Santaló 60,08021,Barcelona,Mo-Th 09:00-19:00; Fr 09:00-15:00; Sa-Su off,2026-06-28,41.3966526,2.1447021
architect,Arquitectos Barcelona,+34623922003,movil,info@arquitectosbarcelona.cat,True,osm,https://arquitectosbarcelona.cat/,Carrer de Maspons i Labrós 19,08041,Barcelona,,2026-06-28,41.4188525,2.1739548
architect,Al-Top Topografia S.A.,+34933400573,fijo,,,,https://www.al-top.com,Bofarull 14,,,,2026-06-28,41.4153075,2.1880272
architect,Mateo Arquitectura,+34932186358,fijo,,,,https://www.mateo-arquitectura.com/,Carrer de Teodor Roviralta 37-39,08035,Barcelona,,2026-06-28,41.4136803,2.1324442
architect,Col·lectiu Volta,,,col.lectiu.volta@gmail.com,True,osm,https://voltaarquitectes.org/,Carrer de la Mare de Déu del Coll 96,,Barcelona,,2026-06-28,41.4119796,2.1469668
architect,Bigas Group,,,bigasgrup@grupbg.com,True,website,https://www.bigasgrup.com/,Doctor Trueta 46,08005,Barcelona,,2026-06-28,41.3916956,2.1945038
architect,EMA ascensors,+34934094291,fijo,,,,http://emaascensors.com/,Avinguda de Madrid 52,08028,Barcelona,,2026-06-28,41.3772612,2.1257048
architect,Mare Nostrum Arquitectura,,,mnarquitectura@mnarquitectura.es,True,osm,https://www.mnarquitectura.es/,"Carrer de Balmes 191, 5º 1ª",,,,2026-06-28,41.3968128,2.1522191
architect,Basark,,,belen.agusti@coac.net,True,osm,https://www.basark.com/,"Carrer de Tuset 23-25, 1º 5ª",,,,2026-06-28,41.3961648,2.1508327
architect,Manrique Planas,,,estudi@manrique-planas.com,True,osm,http://manrique-planas.com/,"Avinguda Diagonal 484-486, 4º 1ª",,,,2026-06-28,41.3957719,2.1550753
architect,Mendoza Partida,,,info@mendozapartida.com,True,osm,http://mendozapartida.com/,"Carrer de Balmes 152, 6º 5ª",,,,2026-06-28,41.3945225,2.1562284
architect,Miguel Calvo,,,miguelcalvogallego@gmail.com,True,osm,https://bcnarquitecto.com/,"Carrer de Balmes 188, 6º 2ª",,,,2026-06-28,41.3968478,2.1532207
architect,OTP Global Engineering,+34932744949,fijo,,,,,Rambla de Fabra i Puig 57,08030,Barcelona,,2026-06-28,41.430032,2.185559
architect,Kubbs Barcelona,,,,,,https://www.kubbs.es/,carrer del Doctor Rizal 8,08006,Barcelona,,2026-06-28,41.3976807,2.1561577
architect,Eskema Materials i Disseny,,,,,,https://www.eskemamd.com/index.php/contacto/,Carrer de Comte Guell 52,08028,Barcelona,,2026-06-28,41.3767053,2.1232566
architect,Francesc Labastida Azemar,,,,,,https://www.arquitecturacatalana.cat/en/authors/francesc-labastida-i-azemar,"Carrer d'Aribau 230-240, 7º N-NY",,,,2026-06-28,41.3957704,2.1502822
architect,Josep Sala i Botana,,,jsalab@coac.net,True,osm,,,,,,2026-06-28,41.3954466,2.1438702
architect,JVM Arcitectes,,,,,,,Carrer de Balmes 226,,,,2026-06-28,41.3987895,2.1512858
architect,Fernando Calero Alacid,,,,,,,"Carrer de Tuset 30, 1º 1ª",,,,2026-06-28,41.3964909,2.1516564
architect,Isern Associats,,,,,,,Zamora 61,,,,2026-06-28,41.3942963,2.1918637
architect,GBR arquitectos,,,,,,,Carrer de Teodora Lamadrid 52-60,,,,2026-06-28,41.4078887,2.1351461
architect,Jorge Vidal,,,,,,,Carrer de Monistrol 25,,,,2026-06-28,41.4014025,2.1632688
architect,Estudio Arquitectura ArqBCN,,,,,,,,,,,2026-06-28,41.4193174,2.1862525
architect,Estudi Novell. (arquitectura),,,,,,,,,,,2026-06-28,41.4004284,2.2000046
architect,Lussi studio,,,,,,,,,,,2026-06-28,41.4046794,2.2044395
architect,lagula,,,,,,,,,,,2026-06-28,41.400951,2.1629627
architect,Promt Studio,,,,,,,,,,,2026-06-28,41.3732456,2.1479872
architect,Tinda's Project,,,,,,,,,,,2026-06-28,41.3977468,2.1598411
architect,7 dissel,,,,,,,,,,,2026-06-28,41.4006937,2.1577419
bakery,Pasticceria di Gracia,+34931583730,fijo,lapasticceriadigracia@gmail.com,True,website,https://www.lapasticceriadigracia.com/,Carrer de Verdi 58,08012,,Mo-Sa 08:00-21:00; Su 08:30-20:30,2026-06-28,41.4047098,2.1559949
bakery,Patisseria Hofmann,+34932688221,fijo,pastisseria@hofmann-bcn.com,True,website,https://hofmannpasteleria.com/,Carrer dels Flassaders 44,08003,Barcelona,Mo-Sa 09:00-20:00; Su 09:00-19:00,2026-06-28,41.3850546,2.1826676
bakery,Vivari,+34931872441,fijo,arco.granier@pansgranier.com,True,website,https://pansgranier.com/,Avinguda Diagonal (lateral mar),,Barcelona,Mo-Su 08:00-15:00,2026-06-28,41.394757,2.1534873
bakery,Pastisseria Takashi Ochiai,+34934536383,fijo,ochiai@ochiaipastisseria.com,True,osm,https://www.ochiaipastisseria.com/,Carrer del Comte d'Urgell 110,08011,Barcelona,"Mo-Fr 08:30-14:30,16:30-20:30; Sa 08:00-15:00,16:30-20:30; Su,PH 08:00-15:00",2026-06-28,41.3842834,2.1561617
bakery,La Besnéta Pastelería Vegana,+34934153839,fijo,daniela@labesneta.com,True,osm,https://labesneta.com/,Carrer de Torrijos 37,08012,Barcelona,"Tu-Su 10:30-21:00; Mo 10:30-15:00; Tu-Su 10:30-14:00,16:00-20:30",2026-06-28,41.4038734,2.1582664
bakery,A Casa Portuguesa,+34930218803,fijo,hola@acasaportuguesa.com,True,osm,https://acasaportuguesa.com/,Carrer de l'Or 8,08012,,Mo-Su 09:30-21:00,2026-06-28,41.4038297,2.1560174
bakery,Strata Bakery,+34934511309,fijo,strata@stratabakery.com,False,osm,http://www.stratabakery.com/,Carrer de Provença 158,08036,Barcelona,"Mo-Fr 09:00-21:00; Sa-Su 09:00-14:30,16:30-21:00",2026-06-28,41.3879053,2.1526362
bakery,Yellow Bakery,+34646148647,movil,info@yellowbakery.es,True,osm,https://yellowbakery.es/,Carrer del Regomir 4 Bis,08002,Barcelona,,2026-06-28,41.3814436,2.1790189
bakery,Colombia Pan y Sabor,+34935398666,fijo,info@colombiapanysabor.com,True,website,https://www.colombiapanysabor.com/,Cale Aragón 451,08013,Barcelona,Mo-Su 08:00-21:30,2026-06-28,41.4026236,2.1783726
bakery,Turris Sants,+34938095624,fijo,atencio.client@turris.es,True,website,https://www.turris.es/,Carrer de Sants 223,08028,Barcelona,,2026-06-28,41.3753682,2.1318443
bakery,Rovira Forners,+34934497188,fijo,info@fornsrovira.com,True,website,https://fornsrovira.com/,Carrer de Sants 282,08028,Barcelona,,2026-06-28,41.3756953,2.1268188
bakery,Hofmann La Seca,+34932956509,fijo,hofmann@hofmann-bcn.com,True,website,https://hofmann-bcn.com/,Carrer dels Flassaders 40,08003,,Tu-Sa 09:00-20:30; Su 09:00-19:00,2026-06-28,41.3851983,2.1823496
bakery,Pastelería Bocí,+34932371313,fijo,boci@boci.cat,True,website,https://boci.cat/,Via Augusta 112,08006,Barcelona,,2026-06-28,41.4013222,2.1483751
bakery,Areca Bakery,+34689567872,movil,hola@arecabakery.com,True,osm,https://arecabakery.com/,Carrer del Torrent de l'Olla 90,,,Mo-Su 09:30-20:00,2026-06-28,41.400986,2.1588292
bakery,Fortino,+34932373873,fijo,forn@fornfortino.com,True,website,https://fornfortino.com,Travessera de Gràcia 126,08012,Barcelona,Mo-Fr 07:30-20:45 _ Sat 08:00-20:30,2026-06-28,41.4001461,2.1560379
bakery,Origo,+34644522040,movil,hola@origobakery.com,True,website,https://www.origobakery.com,Carrer de Milà i Fontanals 9,08012,Barcelona,Mo-Sa 08:00-20:30; Su 09:00-15:00,2026-06-28,41.4004592,2.1632511
bakery,Gluten Tag,+34613448807,movil,info@glutentag.cat,True,osm,https://www.glutentag.cat/,Travessera de Gràcia 173,08012,Barcelona,Tu-Sa 10:00-20:00,2026-06-28,41.4017843,2.1583207
bakery,Forn del Passeig,+34934082061,fijo,,,,https://www.forndelpasseig.com/,Passeig de Fabra i Puig 140,,,,2026-06-28,41.4303903,2.1810197
bakery,Baluard,+34932211208,fijo,,,,https://baluardbarceloneta.com/,Carrer del Baluard 38,08003,Barcelona,Mo-Sa 09:00-21:00,2026-06-28,41.3800227,2.1888614
bakery,Forn Mistral,+34933018037,fijo,,,,https://www.fornmistral.com/,Ronda de Sant Antoni 96,08001,Barcelona,Mo-Sa 07:30-20:30,2026-06-28,41.3846309,2.1641028
bakery,Funky Bakers,,,seyma.erpul@me.com,True,website,https://funkybakers.com/,Passeig del Born 10,,,,2026-06-28,41.3842684,2.1826746
bakery,Oriol Balaguer,+34933632298,fijo,,,,http://www.oriolbalaguer.com,Travessera de les Corts 340,08029,Barcelona,Sa-Su 09:00-14:30; Mo-Fr 16:00-20:00,2026-06-28,41.3893963,2.1397241
bakery,Jansana Gluten Free Bakery,+34931700714,fijo,,,,http://www.glutenfree.cat/,Carrer de Balmes 106,08008,Barcelona,Mo-Sa 08:30-20:00; Su 09:00-14:00,2026-06-28,41.3922971,2.1588608
bakery,Obrador del Croissant,+34934351658,fijo,,,,https://obrador-del-croissant.business.site/,Carrer de Cartagena 326,08025,Barcelona,"Tu-Fr 07:30-13:30,17:00-19:30; Sa-Su 07:30-13:30; Mo off",2026-06-28,41.4109302,2.1748912
bakery,La Reposada,+34933680141,fijo,,,,https://www.lareposada.com/,Plaça de Gal·la Placídia 4-6,,,"Mo-Fr 06:00-21:00; Sa 06:00-15:00; Su,PH 07:00-15:00",2026-06-28,41.398975,2.1535772
bakery,El Fornet,+34695237347,movil,,,,https://elfornet.com/,Avinguda Diagonal 411,,,,2026-06-28,41.3949982,2.1544355
bakery,Fresco Sweets & Bakers,+34933292913,fijo,,,,https://frescosweetsandbakers.negocio.site/,Carrer de l'Hospital 118,08001,Barcelona,Mo-Su 10:00-22:30,2026-06-28,41.3796253,2.1673886
bakery,Cøliaki,+34931277570,fijo,coliakibcn@gmail.com,True,osm,,Carrer de Balmes 219,08001,,Mo-Sa 08:30-20:00,2026-06-28,41.3986681,2.1508393
bakery,Vivari,,,cliente@vivari.es,True,osm,https://www.vivari.es/,Via Augusta 4,,,Mo-Su 07:00-22:00,2026-06-28,41.39627,2.1555031
bakery,Le pain d'Éric et Benjamin,,,lpeb348@gmail.com,True,website,https://www.lepainderic-benjamin.com/,Carrer del Consell de Cent 348,,,,2026-06-28,41.3935854,2.1692218
bakery,Celiadictos,+34934093131,fijo,,,,https://celiadictos.com/,Carrer de la Pobla de Lillet 5,08028,Barcelona,"Mo-Fr 10:00-20:00; Sa 09:00-14:00; Su,PH off",2026-06-28,41.3802512,2.1294867
bakery,Pastisseria Hofmann,,,pastisseria@hofmann-bcn.com,True,website,https://hofmannpasteleria.com/,Avinguda de Pau Casals 5,08021,,Su-Fr 08:00-20:00; Sa 08:00-15:00,2026-06-28,41.3931454,2.1431542
bakery,Baluard Barceloneta,+34932381225,fijo,,,,https://baluardbarceloneta.com/,Carrer de Muntaner 363,,,Mo-Sa 07:30-21:00; Su 07:30-15:00,2026-06-28,41.3987198,2.1432869
bakery,Kakigori Barcelona,+34623481034,movil,,,,https://www.instagram.com/kakigori.bcn/,Plaça de la Vila de Gràcia 3,,,Su-Th 11:00-23:00; Fr-Sa 11:00-00:00,2026-06-28,41.4000646,2.1579976
bakery,Santantoni Pastisseria,,,info@santantoni.biz,True,website,http://santantoni.biz,Carrer del Tajo,08032,,"Tu-Fr 09:00-14:30, 17:00-20:30; Sa-Su 08:00-15:00",2026-06-28,41.4297824,2.1599624
bakery,Forn de Pa Laia,+34932472065,fijo,,,,,Carrer de Ribes 36,08013,,Mo-Fr 06:00-20:30; Sa-Su 07:00-14:00,2026-06-28,41.3982628,2.18314
bakery,Forn Mistral. Gràcia,,,,,,https://fornmistral.com/,Carrer d'Astúries 35,08012,Barcelona,Mo-Sa 11:00-20:30,2026-06-28,41.4034174,2.1542957
bakery,Lola's Cake,,,,,,http://lolascake.com,Sepúlveda 123,,,,2026-06-28,41.3809597,2.1592836
bakery,El Molí Vell,+34934305510,fijo,,,,,Carrer d'Aribau 157,08036,Barcelona,,2026-06-28,41.3928615,2.1532879
bakery,Boldú,,,,,,https://www.boldu.es/,Carrer de Móra d'Ebre 64,08023,,,2026-06-28,41.4178039,2.14894
bakery,Boldú,,,,,,https://www.boldu.es/,Passeig de la Mare de Déu del Coll 146,08023,,,2026-06-28,41.4201143,2.1491364
bakery,Forn Enrich,+34933218345,fijo,,,,,Carrer del Rosselló 54,08029,Barcelona,Mo-Fr 07:00-21:00; Sa 07:00-14:00; Su 08:00-14:00,2026-06-28,41.3859711,2.1477293
bakery,Fleca Balmes,+34932180710,fijo,,,,https://flecabalmes.com/,,,,Mo-Fr 07:00-20:30;Sa 08:00-14:00; PH off,2026-06-28,41.3945387,2.1559287
bakery,Forn de pa Providència,,,,,,http://forndepaprovidencia.com/,Carrer de la Providència 59,,,,2026-06-28,41.4071603,2.1576482
bakery,Pa Serra,+34934242541,fijo,,,,,Carrer de l'Olivera 31,,,,2026-06-28,41.3735834,2.1573765
bakery,Frolis,+34935250044,fijo,,,,,Carrer d'Aragó 123,08015,Barcelona,Mo-Fr 10:00-20:00,2026-06-28,41.3837974,2.1535094
bakery,El forn de Sant Andreu,+34933467252,fijo,,,,,Carrer Gran de Sant Andreu 143,,,,2026-06-28,41.4317886,2.1892454
bakery,Os Galegos,+34933087714,fijo,,,,,Carrer de Fluvià 201,08020,,,2026-06-28,41.4133985,2.1982992
bakery,Purgimón,+34931729532,fijo,,,,,Carrer de Concepción Arenal 111,,,"Mo-Fr 06:30-15:00, 16:30-20:30; Sa-Su 07:30-15:00",2026-06-28,41.4243697,2.1840089
bakery,Pa Valero,+34931262093,fijo,,,,,Carrer de Londres 12,08029,Barcelona,,2026-06-28,41.3882906,2.1440914
bakery,Montserrat,+34934555927,fijo,,,,,Carrer de los Castillejos 366,08025,Barcelona,Mo-Fr 07:00-21:00; Sa 07:30-14:30,2026-06-28,41.4116586,2.1717361
bakery,La Riera Blanca,+34934316831,fijo,,,,,Carrer de Carreras i Candi 51,08028,Barcelona,"Mo-Fr 07:00-14:00,17:00-20:00; Sa-Su 08:00-14:00",2026-06-28,41.3731405,2.1278521
bakery,Lilo Café,,,lilocafebcn@gmail.com,True,website,https://lilobrunch.com,,,,"Mo-Fr 09:00-17:00; Sa,Su 09:00-18:00",2026-06-28,41.3997972,2.1793828
bakery,Levaduramadre,,,,,,https://levaduramadre.es/,Carrer de Balmes 230,,,Mo-Su 08:00-21:30,2026-06-28,41.3989411,2.1509285
bakery,Forn Sant Honorat,+34934592806,fijo,,,,,Carrer de la Llibertat 60,08012,,,2026-06-28,41.4007062,2.1627103
bakery,Macxipa,,,,,,https://macxipan.com/,Plaça de Gal·la Placídia 8,,,,2026-06-28,41.3991037,2.1534304
bakery,El Fornet,,,,,,https://elfornet.com/#,Carrer d'Aribau,,,Mo-Fr 07:30-19:00; Sa 08:00-14:30,2026-06-28,41.3949884,2.1507931
bakery,Macxipa,,,,,,https://macxipan.com/,Carrer de Muntaner 258,,,24/7,2026-06-28,41.3951637,2.1482986
bakery,Macxipa,,,,,,https://macxipan.com/,Carrer de Tuset 16-18,,,24/7,2026-06-28,41.3958053,2.1523376
bakery,Racó de Pedralbes,+34932804495,fijo,,,,,Carrer del Doctor August Pi i Sunyer 11,08034,Barcelona,,2026-06-28,41.3893858,2.1229078
bakery,Forn Santanach,+34934242577,fijo,,,,,Carrer del Consell de Cent 98,08015,Barcelona,"Mo-Fr 07:00-14:30,16:30-20:30; Sa 07:00-14:30; Su 08:00-14:00",2026-06-28,41.3802489,2.1514895
bakery,Sant Honorat,+34930101970,fijo,,,,,Avinguda de la Mare de Déu de Montserrat 87,08024,,Mo-Fr 07:00-20:30; Sa-Su 08:00-15:00; PH 08:00-15:00,2026-06-28,41.4149591,2.1656676
bakery,LAFLECA Sicilia&Ausiàs,+34932456035,fijo,,,,https://lafleca-siciliaausias.negocio.site,,,,Mo-Fr 06:30-20:30; Sa-Su 07:00-14:30,2026-06-28,41.3956111,2.1810233
bakery,Tonka,+34680657430,movil,,,,,Carrer de Verdi 20,,,,2026-06-28,41.4036539,2.1571514
bakery,Forn del Sol,+34934215359,fijo,,,,,Carrer de la Constitució 100,08014,Barcelona,"Mo-Fr 06:30-20:00; Sa 07:00-14:00; Su,PH off",2026-06-28,41.3696581,2.1346309
bakery,Forn Jaume Montserrat,+34932180546,fijo,,,,,Rambla de Prat 21,08012,Barcelona,Mo-Sa 09:00-21:00,2026-06-28,41.4011731,2.1517168
bakery,MacxiPa,,,,,,https://macxipan.com,Avinguda de la Mare de Déu de Montserrat 167,08041,Barcelona,Mo-Fr 06:00-21:30; Sa 06:00-15:00; Su 07:00-15:00,2026-06-28,41.418042,2.1714856
bakery,vaveik,,,,,,https://www.vaveik.com/,Carrer de Verdi 88,08012,Barcelona,,2026-06-28,41.4055959,2.1550666
bakery,FAME,+34935367118,fijo,,,,,Carrer de Sant Lluís 105,08024,Barcelona,We-Su 11:00-15:00_18:30-22:30,2026-06-28,41.4073614,2.1631465
bakery,Baluard Barceloneta,,,,,,https://baluardbarceloneta.com/,Carrer de Casanova 178,,,Mo-Sa 07:30-20:30; Su 07:30-15:00,2026-06-28,41.3913238,2.1511884
bakery,Le Petit Four,+34936814945,fijo,,,,,Carrer dels Doctors Trias i Pujol 7,08034,,,2026-06-28,41.3900518,2.123408
bakery,Baluard Barceloneta,,,,,,https://baluardbarceloneta.com/,Carrer de Nicaragua 100,08029,,Mo-Sa 07:30-20:30; Su 07:30-15:00,2026-06-28,41.3856546,2.1386198
bakery,Forn del Barri,+34933519716,fijo,,,,,Carrer de las Navas de Tolosa 327,08026,,Mo-Fr 09:00-21:00; Sa-Su 09:00-18:00,2026-06-28,41.4164543,2.1851299
bakery,La Farineta,+34934296430,fijo,,,,,Carrer de Mühlberg 3,,,Mo-Fr 06:00-20:30; Sa 06:30-14:30; Su 07:00-14:30,2026-06-28,41.4182008,2.1577032
bakery,L'Obrador del Molí,,,,,,,Avinguda Republica Argentina,08023,,"Mo-Sa 07:00-21:00; Su,PH 08:00-21:00",2026-06-28,41.4114567,2.1421601
bakery,Horno Sant Jordi S.L.,,,,,,,Carrer de la Llibreteria 8,08002,,,2026-06-28,41.3830987,2.177326
bakery,MaxciPa,,,,,,,Avinguda Republica Argentina,08023,,Mo-Fr 06:00-21:30; Sa 06:00-15:00; Su 07:00-15:00,2026-06-28,41.4114571,2.1422306
bakery,Forn Jovic,,,,,,,Carrer de los Castillejos 243,,,,2026-06-28,41.404947,2.1801932
bakery,Paníssim,,,,,,,Carrer de Padilla 240,,,,2026-06-28,41.4057132,2.1773913
bakery,Santa Clara,,,,,,,Travessera de Gràcia,08012,Barcelona,,2026-06-28,41.4033977,2.1613308
bakery,Forn Yara,,,,,,,Carrer de Milà i Fontanals 54,,,,2026-06-28,41.4017827,2.161802
bakery,Pastisseria Santa Gemma (TANCAT/CLOSED),,,,,,,Carrer de Manila,08034,Barcelona,,2026-06-28,41.3900845,2.1259042
bakery,itaway,,,,,,,Carrer del Rosselló 112,,Barcelona,"Mo-Th 08:00-22:30, Fr 08:00-01:30, Sa 10:00-01:30; Su off",2026-06-28,41.3884737,2.1511604
bakery,Forn Solá,,,,,,,Carrer del Regomir 12,08002,,,2026-06-28,41.3811616,2.1795361
bakery,Levaduramadre,,,,,,,Carrer de Viladomat 293,,Barcelona,Mo-Su 08:00-21:30,2026-06-28,41.3883968,2.1455452
bakery,Bopan,,,,,,,Travessera de Gracia 64,,,"Mo-Fr 08:00-20:00; Sa,Su 08:00-15:00,17:30-20:00",2026-06-28,41.3964716,2.1503823
bakery,Cafe au Lait,,,,,,,Carrer d'Aribau,,,,2026-06-28,41.3971292,2.1482719
bakery,Forn Artesà,,,,,,,Plaça de Tetuan 33,08010,Barcelona,,2026-06-28,41.3956355,2.1760801
bakery,Forn de Pa Artesà,,,,,,,Carrer Sagués / Carrer Marià Cubi,,,,2026-06-28,41.3948554,2.1440083
bakery,Pa de Kilo,,,,,,,Carrer del Doctor Dou 12,08001,Barcelona,,2026-06-28,41.3828354,2.1686987
bakery,Iaia'Nita,,,,,,,Carrer del Concili de Trento 77,08018,Barcelona,,2026-06-28,41.4133402,2.1951346
bakery,Forn de la Vila,,,,,,,Carrer Ample 33,08002,,,2026-06-28,41.3805787,2.180002
bakery,Cuquis. Parlem de Pa,,,,,,,Carrer Lope de Vega 94,08005,Barcelona,,2026-06-28,41.4043797,2.2038713
bakery,Turris,,,,,,,Carrer d'Aribau 158,08036,Barcelona,Mo-Fr 08:00-21:00; Sa 08:00-14:30,2026-06-28,41.392321,2.1543711
bakery,Ququía,,,,,,,Carrer de Ramón y Cajal 108,,,"Mo-Fr 09:00-14:00,16:00-19:30",2026-06-28,41.4041485,2.161252
bakery,Rabassa,,,,,,,Carrer de Rabassa 5,,,,2026-06-28,41.4069631,2.1586352
bakery,Mon Pa,,,,,,,Carrer del Clot 53,08018,Barcelona,,2026-06-28,41.4077954,2.1880996
bakery,Bulka,,,,,,,Carrer del Coronel Sanfeliu 10,08018,Barcelona,"Tu-Fr 9:00-14:00, 16:30-19:30; Sa 10:00-18:00",2026-06-28,41.4068426,2.1884295
bakery,Forn de pastes,,,,,,,Carrer de Pau Claris 80,,,,2026-06-28,41.3894098,2.1717886
bakery,iaia 'nita,,,,,,,Carrer de Bilbao 208,,,,2026-06-28,41.4108993,2.1928895
bakery,La Fabrique,,,,,,,Creu dels Molers,,,"Tu-Fr 07:30-20:30; Sa,Su,PH 07:30-15:00; Mo off",2026-06-28,41.3734554,2.1609326
bakery,Forn Ideal,,,,,,,Carrer de Ramón y Cajal 120,,,,2026-06-28,41.4044837,2.161786
bakery,Forn de pa Belmonte,,,,,,,Carrer de Manso 50,,,,2026-06-28,41.3771482,2.1614587
bakery,Le Fournil,,,,,,,Carrer de Badajoz 27,08005,Barcelona,,2026-06-28,41.3957571,2.1990075
bakery,Forn de la Vilamala,,,,,,,Carrer dels Agullers,,,,2026-06-28,41.3826331,2.1818054
bakery,Forn de Pa Sabadell,,,,,,,Carrer de Roger de Flor 34,,,Mo-Fr 06:30-21:00; Sa 07:00-15:00; Su 08:00-15:00,2026-06-28,41.4041535,2.1652855
bakery,Forn Elias,,,,,,,Carrer de Rogent 87,,,,2026-06-28,41.4120851,2.1807968
bakery,Vila - Forn de Pa,,,,,,,Carrer del Paraguai 1,,,,2026-06-28,41.4162983,2.2062781
bakery,Macxi Pa,,,,,,,Carrer de Puigcerdà 196-202,08020,,,2026-06-28,41.4183019,2.2057143
bakery,Nou Joanet,,,,,,,Carrer de València 227,,Barcelona,,2026-06-28,41.391285,2.1612086
bakery,La Pallaresa,,,,,,,Carrer de Petritxol 11,,,"Mo-Su 09:00-13:00, 16:00-21:00",2026-06-28,41.3828951,2.1728035
bakery,Tartela,,,,,,,Carrer de Llançà 32,08015,,,2026-06-28,41.3771709,2.149765
bakery,forn de sant,,,,,,,Rambla de Catalunya 50,08007,Barcelona,,2026-06-28,41.3906813,2.1642736
bakery,Lukumas Doughnut Shop,,,,,,,Torrent de L'Olla 169,08012,,Mo-Fr 08:00-18:00; Sa 09:00-13:30,2026-06-28,41.4048033,2.1541552
bakery,Forn Sarret,,,,,,,Carrer del Consell de Cent 73,,,,2026-06-28,41.3947443,2.1708889
bakery,Pastisseria Formentor,,,,,,,Carrer de les Camèlies 21,,,,2026-06-28,41.4113695,2.1594748
bakery,l'Obrador dels 15,+34936843702,fijo,,,,,,,,,2026-06-28,41.4194755,2.1810463
bakery,El Nostre Pa,,,,,,,Passeig de Lluís Companys 15,,,,2026-06-28,41.3906677,2.1801418
bakery,Bendito Pecado,,,,,,,Carrer del Comerç 8,,,,2026-06-28,41.389133,2.1812621
bakery,Artipà,,,,,,,Travessera de Gràcia,08012,Barcelona,,2026-06-28,41.4041763,2.1621164
bakery,turris,,,,,,,Travessera de Gràcia 206,08012,Barcelona,,2026-06-28,41.4031453,2.1609104
bakery,Castell de Sant Medir,+34932134285,fijo,,,,,,,,Mo-Su 07:30-21:00,2026-06-28,41.4048953,2.1632463
bakery,La bruixeta dolça,,,,,,,Carrer de Huelva,,,,2026-06-28,41.4182327,2.1975089
bakery,Forn de Vallvidrera,,,,,,,Carrer de l'Alcalde Miralles 3,08017,Barcelona,,2026-06-28,41.4133692,2.1045677
bakery,Forn Provença,,,,,,,Carrer de Provença 69,08029,Barcelona,Mo-Su 07:00-20:30,2026-06-28,41.3851217,2.1485562
bakery,Fleca Artesana,,,,,,,Carrer de l'Escorial 41,,,,2026-06-28,41.4078116,2.1606804
bakery,Comaxurros,,,,,,,Carrer de Muntaner 562,,,,2026-06-28,41.4058674,2.1344003
bakery,Xurreria dels Banys Nous,,,,,,,Carrer dels Banys Nous 8,08002,,"Mo-Tu, Th-Fr 07:00-13:30, 15:30-20:15; Sa 07:00-14:00, 15:30-20:30; Su 07:00-14:30, 16:30-20:30",2026-06-28,41.382239,2.1751246
bakery,Macxipan,,,,,,,Carrer de l'Escorial,,,,2026-06-28,41.4065596,2.1618272
bakery,Farina & Sons,,,,,,,Carrer de Bailèn 203,08037,Barcelona,Mo-Su 07:01-20:30,2026-06-28,41.4019673,2.1637647
bakery,Sol Pa,,,,,,,Carrer de l'Escorial 75,,,,2026-06-28,41.410729,2.1578581
bakery,Macxipa,,,,,,,Carrer de Verdi 4,,,,2026-06-28,41.4030545,2.157823
bakery,Macxipa,,,,,,,Travessera de Gràcia,08012,Barcelona,,2026-06-28,41.4026255,2.1600706
bakery,Forn la Llana,,,,,,,Plaça de la Llana,,,,2026-06-28,41.384888,2.1790763
bakery,Mon Pa,,,,,,,Carrer de Múrcia,,,,2026-06-28,41.4158602,2.1898238
bakery,Gil,,,,,,,Carrer de Las Navas de Tolosa 261,08026,,,2026-06-28,41.4132888,2.1893709
bakery,El mos,,,,,,,Carrer dels Tallers,,,,2026-06-28,41.3848001,2.1679413
bakery,Villa Bakery,,,,,,,Carrer de Roger de Llúria,,,"Mo-Sa 08:00-20:00; PH,Su 08:00-15:00",2026-06-28,41.3911139,2.1713003
bakery,Cal Moliné,,,,,,,Carrer Gran de Gràcia,,,Mo-Fr 07:00-21:00; Sa 07:00-14:00; Su 08:00-14:30,2026-06-28,41.4022366,2.1529513
bakery,Baluard,,,,,,,Carrer de Balmes 206,,,,2026-06-28,41.3974369,2.15224
bakery,Fleca Comtal,,,,,,,Carrer Comtal 21,,,,2026-06-28,41.3866782,2.1737169
bakery,Catafal,,,,,,,Avinguda de la Riera de Cassoles 69,,,,2026-06-28,41.4057412,2.1498393
bakery,Casa Vives,,,,,,,Carrer d'Aragó 264,08007,,Mo-Sa 08:30-20:30; Su 09:00-15:00,2026-06-28,41.3911724,2.1638367
bakery,La Llesca,,,,,,,Ronda del Guinardó,,,,2026-06-28,41.4225755,2.1774678
bakery,Pastisseria Lerma,,,,,,,Carrer de París,,Barcelona,,2026-06-28,41.3918228,2.1511139
bakery,Iaia Nita Mariá Mubí,,,,,,,Carrer de Marià Cubí 69,,,,2026-06-28,41.397773,2.1489334
bakery,Romà,,,,,,,Carrer de Bonavista 29,08012,Barcelona,,2026-06-28,41.3986694,2.1602297
bakery,Granier,,,,,,,Plaça de Gal·la Placídia,,,"Mo-Fr 07:00-21:00; Sa-Su,PH 07:30-14:00",2026-06-28,41.3998873,2.1525672
bakery,La Paloma Blanca,,,,,,,Carrer de les Carretes 59,,,,2026-06-28,41.3769774,2.1682326
bakery,Forn de Sarrià,,,,,,,Carrer Major de Sarrià 100,,,,2026-06-28,41.3992449,2.1220934
bakery,MacxiPa,,,,,,,Carrer Major de Sarrià 110,,,,2026-06-28,41.3995645,2.1218004
bakery,el Fornet d'en Rossend,,,,,,,Carrer Major de Sarrià 35,,,Mo-Fr 07:00-20:00+; Sa 08:00-14:30+; Su 08:00-14:30+; PH 08:00-14:00+,2026-06-28,41.3971952,2.1235038
bakery,Farina & sons,,,,,,,Carrer Gran de Gràcia 264,,,,2026-06-28,41.4059969,2.1503966
bakery,Macxipa,,,,,,,Travessera de les Corts,,,,2026-06-28,41.3840385,2.1302676
bakery,Monpa,,,,,,,Carrer de Rogent 26,,,,2026-06-28,41.408987,2.1855396
bakery,Boheme,,,,,,,Rambla del Poblenou 82,08005,Barcelona,,2026-06-28,41.4014971,2.2008971
bakery,Vivari,,,,,,,Carrer del Clot 59,08018,Barcelona,"PH,Mo-Su 06:30-21:00",2026-06-28,41.4080887,2.1882085
bakery,Forn de la Rovira,,,,,,,Carrer de Rabassa 25,08024,,,2026-06-28,41.407569,2.1580274
bakery,elFornet,,,,,,,Carrer de Provença,08008,Barcelona,,2026-06-28,41.3909518,2.1567126
bakery,elFornet,,,,,,,Carrer del Rosselló,08008,Barcelona,,2026-06-28,41.3949129,2.1597242
bakery,Forneria París,,,,,,,Carrer de París 89,,Barcelona,"Sa-Th,PH 08:00-24:00, Fr 08:00-01:00",2026-06-28,41.3887478,2.1465949
bakery,Petritxol Xocoa,,,,,,,Carrer de Petritxol 11,08002,,,2026-06-28,41.3828865,2.1728944
bakery,L'Obrador del Born,,,,,,,Carrer de les Semoleres 12,,,,2026-06-28,41.3854404,2.1789322
bakery,El Primo Panadería Y Pastelería Latina,,,,,,,Carrer de Sants 252,08028,Barcelona,Mo-Su 07:00-22:00,2026-06-28,41.3756583,2.1283168
bakery,Obrador 365,,,,,,,Carrer de Sants 295-297,08028,Barcelona,Mo-Su 06:00-21:00,2026-06-28,41.3754305,2.1290687
bakery,Anna,,,,,,,Rambla de Badal 74,08014,Barcelona,,2026-06-28,41.3688057,2.133334
bakery,MacxiPa,,,,,,,Carrer dels Alts Forns 70,08038,Barcelona,,2026-06-28,41.358921,2.1412776
bakery,El Teu Pa,,,,,,,Carrer de Llull,,,,2026-06-28,41.4019577,2.2032297
bakery,La Reposada,,,,,,,Carrer de Tuset 21,,,Mo-Sa 06:00-20:00,2026-06-28,41.3962569,2.1513143
bakery,Valls&co,,,,,,,Travessera de Dalt 16m,,,,2026-06-28,41.4083501,2.1523369
bakery,MacxiPa,,,,,,,Travessera de Dalt 8,,,,2026-06-28,41.4080585,2.151611
bakery,Santa Gloria,,,,,,,Travessera de Dalt 30,,,,2026-06-28,41.4086725,2.1532304
bakery,365,,,,,,,Travessera de Gràcia,,,Mo-Su 06:00-22:00,2026-06-28,41.3965909,2.1505806
bakery,Farina & Sons,,,,,,,Carrer de Cartagena,,,,2026-06-28,41.4060157,2.181416
bakery,Miralles,,,,,,,Carrer de Ca l'Alegre de Dalt 8,,,,2026-06-28,41.4074729,2.1628728
bakery,La Palmera,,,,,,,Carrer de València 572,,,,2026-06-28,41.4078452,2.1837439
bakery,Forn Bonpreu,,,,,,,Carrer de Pi i Margall 20,,,,2026-06-28,41.4064999,2.1634948
bakery,Shalimar,,,,,,,Carrer del Carme 97,,,Mo-Su 10:00-23:00,2026-06-28,41.380015,2.1668897
bakery,Katy,,,,,,,Carrer del Mas Casanovas,,,,2026-06-28,41.4120499,2.1694114
bakery,Bou,,,,,,,Carrer de los Castillejos 324,,,,2026-06-28,41.4093823,2.1747644
bakery,"Forn de Pa ""artesà""",,,,,,,Carrer del Rosselló 458 bis,,,,2026-06-28,41.4075654,2.1765789
bakery,Forn del Mercat,,,,,,,Carrer de Sant Jordi 4,08028,Barcelona,,2026-06-28,41.3750629,2.13361
bakery,MacxiPa,,,,,,,Carrer de Sants 259,08028,Barcelona,,2026-06-28,41.3754278,2.1300834
bakery,Forn d'en Pere,,,,,,,Carrer de Sants 326,08028,Barcelona,"Mo-Fr 06:30-14:30, 17:00-20:30",2026-06-28,41.3757382,2.1244107
bakery,Forn de pa - el Pau,,,,,,,Carrer de Padilla 348,08025,,,2026-06-28,41.4107981,2.1707309
bakery,Sardenya,,,,,,,Carrer de Sardenya 357,,,"Mo-Fr 06:30-15:00, 16:30-21:00; Sa 06:30-20:00; Su 08:00-15:00",2026-06-28,41.4056094,2.1701473
bakery,Furnos,,,,,,,Carrer de Marià Aguiló 67,,,,2026-06-28,41.4018263,2.202405
bakery,Donatella,,,,,,,Carrer de Milans 7,,,,2026-06-28,41.3806637,2.1791186
bakery,Forn Europa,,,,,,,Carrer del Pare Laínez 13,,,,2026-06-28,41.4065924,2.1645812
bakery,Turris,,,,,,,Carrer Gran de Gràcia 34,08036,Barcelona,,2026-06-28,41.3987962,2.1569017
bakery,Vivari,,,,,,,Carrer de Balmes 221,,,Mo-Su 07:00-22:00,2026-06-28,41.3988128,2.1507189
bakery,La Valenciana,,,,,,,Carrer de Roger de Flor 252,,,,2026-06-28,41.4022127,2.1684436
bakery,Granier,,,,,,,Travessera de Gràcia 216,,,,2026-06-28,41.403829,2.1619984
bakery,Sorlinyam,,,,,,,Carrer del Rosselló 492,,,,2026-06-28,41.409236,2.1788014
bakery,Forn de pa,,,,,,,Carrer de Provença 539,,,,2026-06-28,41.4085844,2.1797059
bakery,Santagloria,,,,,,,Carrer de Pi i Margall 5,,,,2026-06-28,41.4061807,2.1629545
bakery,Forn La Llibreria,,,,,,https://fornlallibreria.com/,,,,,2026-06-28,41.3867976,2.1617126
bakery,Farina & sons,,,,,,,Carrer de Padilla 301,,,,2026-06-28,41.4079109,2.1740328
bakery,Laia,,,,,,,Carrer d'Amigó 37,,,,2026-06-28,41.3953695,2.1442419
bakery,Turris Claret,,,,,,,Carrer de Sant Antoni Maria Claret 61,,,Mo-Fr 08:00-21:00; Sa 08:00-20:30,2026-06-28,41.4068104,2.168299
bakery,milpa,,,,,,,Carrer de Girona 181,,,,2026-06-28,41.3997251,2.1644112
bakery,Granier,,,,,,,Carrer de Provença 362-364,08037,,,2026-06-28,41.3996169,2.1681538
bakery,Vivari coffee and bakery,,,,,,,Rambla de Guipúscoa 109,08020,Barcelona,,2026-06-28,41.4202893,2.202017
bakery,The cake man bakery,,,,,,,Carrer de l'Amistat 18,08005,,Tu-Fr 09:00-17:00; Sa 09:00-16:00,2026-06-28,41.3999962,2.205612
bakery,Flor de Gràcia,,,,,,,Carrer de Bruniquer 7,,,,2026-06-28,41.4042143,2.1598154
bakery,Baluard,,,,,,,Carrer del Torrent de l'Olla 142,,,Mo-Sa 07:30-20:30; Su 07:30-15:00,2026-06-28,41.4029747,2.156342
bakery,Tartaria,,,,,,,Carrer del Cigne 14,,,,2026-06-28,41.4004934,2.1537499
bakery,Lliso Lis,,,,,,,Carrer de Niça 6,08024,Barcelona,Mo-Fr 07:30-20:00; Sa 07:30-14:00,2026-06-28,41.4138719,2.1692673
bakery,Vivari,,,,,,,Carrer de Mallorca 436,,,06:30-21:30,2026-06-28,41.4041933,2.1765989
bakery,Coush Armo,,,,,,,Carrer de Bailèn 134,08009,Barcelona,,2026-06-28,41.3990609,2.1724841
bakery,Mayer,,,,,,,Carrer del Diluvi 11,,,,2026-06-28,41.4006172,2.1586856
bakery,Brotzeit,,,,,,,Travessera de Gràcia 167,,,"Mo-Fr 08:30-20:30; Sa 09:00-20:30; Su,PH 09:00-14:00",2026-06-28,41.4013832,2.15782
bakery,Areca Bakery,,,,,,,Carrer d'Aribau 91,,,Mo-Fr 08:30-20:30; Sa-Su 09:30-20:30,2026-06-28,41.3898198,2.1570032
bakery,Macchina,,,,,,,Plaça de la Llibertat 25,,,,2026-06-28,41.3996341,2.1538447
bakery,Granier,,,,,,,Carrer de Pi i Margall 12,08025,Barcelona,,2026-06-28,41.4059141,2.1632813
bakery,Coliaki Gluten Free,,,,,,,Carrer de Mallorca 504,,,,2026-06-28,41.4072327,2.1806493
bakery,Forn Suñol,,,,,,,Carrer de Descartes 21,,,,2026-06-28,41.3992341,2.1416356
bakery,Pa amb Lola,,,,,,,Carrer de Balmes 83,,Barcelona,,2026-06-28,41.3910074,2.1601814
bakery,Ca la Toñi,,,,,,,Carrer d'Olzinelles 103,08014,Barcelona,,2026-06-28,41.3705556,2.1376468
bakery,Baluard Barceloneta,,,,,,,Carrer de Pau Claris 188,,,"Mo-Sa 07:30-13:00, 14:00-21:00; Su 07:30-15:00",2026-06-28,41.3964705,2.1624193
bakery,Dulzura Mia,,,,,,,Carrer del Consell de Cent 506,,,,2026-06-28,41.4012395,2.1794199
bakery,Wawas,,,,,,,Carrer de Nàpols 190-186,,,,2026-06-28,41.3988043,2.1750917
bakery,Lavaduramadre,,,,,,,Carrer de la Creu Coberta 131,08014,Barcelona,,2026-06-28,41.3751383,2.1413915
bakery,Oriol,,,,,,,Passeig de Sant Joan 3,,,,2026-06-28,41.3918856,2.179056
bakery,Magma Bakery Lab,,,,,,,Carrer de Pere IV 248,08005,,We-Su 09:00-17:00,2026-06-28,41.4053281,2.1999522
bakery,365,,,,,,,Travessera de Dalt 83,,,,2026-06-28,41.4107091,2.1564999
bakery,Croccanti Forn amb Degustació,,,,,,,Carrer d'Aragó 653-651,,,,2026-06-28,41.4117239,2.1904337
bakery,Forn Pastisseria Tarragó,,,,,,,Carrer de Floridablanca 95 B,,,,2026-06-28,41.3799316,2.1602282
bakery,Turris,,,,,,,Carrer del Rosselló 323,,,,2026-06-28,41.4000313,2.1660223
bakery,Bo & Mie Boulangerie Creative,,,,,,,Carrer de Provença 433,,,,2026-06-28,41.4040816,2.1737554
bakery,Forn la Panacée,,,,,,,Carrer de Sepúlveda 131,,,,2026-06-28,41.381572,2.1601303
bakery,Pastisseria Hanai Vegana,,,,,,,Carrer de Puigmartí 6,,,,2026-06-28,41.4013142,2.1589101
bakery,Macxipa,,,,,,,Carrer de Lisboa 24-22,,,,2026-06-28,41.4296561,2.15828
bakery,Pa de la Figuera,,,,,,,Carrer de Jaume Giralt 55,,,Mo-Su 08:00-22:00,2026-06-28,41.387969,2.1787258
bakery,Sweet breakfasts,,,,,,,Carrer de Sardenya 552,,,,2026-06-28,41.4134627,2.1615534
bakery,Panaderia Mimo,,,,,,,Carrer del Segle XX 43,,,,2026-06-28,41.4233303,2.1759176
bakery,Boix,,,,,,,,,,,2026-06-28,41.3836486,2.1695479
bakery,Bopan,,,,,,,,,,,2026-06-28,41.4012853,2.1468444
bakery,Jaume,,,,,,,,,,Mo-Su 06:30-21:00,2026-06-28,41.4078939,2.1888829
bakery,Forn,,,,,,,,,,,2026-06-28,41.4064857,2.1904601
bakery,La Farineta,,,,,,,,,,,2026-06-28,41.4187531,2.1396071
bakery,Forn de la Virreina,,,,,,,,,,,2026-06-28,41.4040442,2.1580138
bakery,MacxiPa,,,,,,,,,,,2026-06-28,41.4061309,2.1763758
bakery,Mollipa Forners,,,,,,,,,,,2026-06-28,41.4218097,2.1427604
bakery,L'Obrador del molí,,,,,,,,,,,2026-06-28,41.3941806,2.1264085
bakery,Maxipan,,,,,,,,,,,2026-06-28,41.3938292,2.1253337
bakery,El Molí Vell,,,,,,,,,,,2026-06-28,41.3934429,2.1265729
bakery,Forn de la Lluisa,,,,,,,,,,,2026-06-28,41.3973886,2.1810451
bakery,La Panera,,,,,,,,,,,2026-06-28,41.4374937,2.1563976
bakery,Forn de pa Balboa,,,,,,,,,,,2026-06-28,41.3820054,2.1880447
bakery,Rovira,,,,,,,,,,"Mo-Fr 06:30-21:30; Sa 06:30-15:00; Su,PH 07:00-15:00",2026-06-28,41.3759528,2.1177927
bakery,Vivari,,,,,,,,,,Mo-Su 07:00-22:00,2026-06-28,41.3824889,2.137724
bakery,Arenas Molins,,,,,,,,,,,2026-06-28,41.3827747,2.1385019
bakery,Masedy,,,,,,,,,,,2026-06-28,41.3827529,2.1383963
bakery,El fornet de Can Romà,,,,,,,,,,,2026-06-28,41.4066798,2.2075637
bakery,Catafal,,,,,,,,,,,2026-06-28,41.4051179,2.1375846
bakery,Fornet de les delícies,,,,,,,,,,,2026-06-28,41.3769201,2.1166374
bakery,Forn del Noddy,,,,,,,,,,,2026-06-28,41.3815102,2.1463652
bakery,Panet,,,,,,,,,,,2026-06-28,41.3819275,2.1511501
bakery,Macxi Pa,,,,,,,,,,Mo-Fr 06:00-21:30; Sa 06:00-15:00; Su 07:00-15:00,2026-06-28,41.3871992,2.113051
bakery,Cruixent,,,,,,,,,,,2026-06-28,41.4018412,2.2007225
bakery,La Boulangerie,,,,,,,,,,,2026-06-28,41.3956343,2.1441661
bakery,Tanu,,,,,,,,,,,2026-06-28,41.3813329,2.1356606
bakery,La Torrada,,,,,,,,,,,2026-06-28,41.3932368,2.1936985
bakery,Mr Pan,,,,,,,,,,,2026-06-28,41.4164718,2.1878826
bakery,Forn&coffee Masedy,,,,,,,,,,,2026-06-28,41.3833924,2.1274302
bakery,Forn de Pa MediaVilla,,,,,,,,,,,2026-06-28,41.4386777,2.181135
bakery,Santa Gloria,,,,,,,,,,"Mo-Sa 07:00-21:00; Su,PH 08:00-21:00",2026-06-28,41.4116287,2.1386796
bakery,La Farga,,,,,,,,,,,2026-06-28,41.4111197,2.1383817
bakery,Lliso Lis,,,,,,,,,,,2026-06-28,41.414375,2.1627666
bakery,Maxci Pan,,,,,,,,,,,2026-06-28,41.4002923,2.1458497
bakery,El forn de barri,,,,,,,,,,,2026-06-28,41.3994688,2.1788428
bakery,Mon Pa,,,,,,,,,,,2026-06-28,41.4135095,2.2012457
bakery,+Calida:d,,,,,,,,,,,2026-06-28,41.4034789,2.1712311
bakery,365 Café,,,,,,,,,,,2026-06-28,41.4021454,2.1738907
bakery,Maxcipa,,,,,,,,,,,2026-06-28,41.4170803,2.1961641
bakery,Turris,,,,,,,,,,,2026-06-28,41.3877784,2.1558911
bakery,Pastisseria Canal,,,,,,,,,,,2026-06-28,41.39383,2.1441497
bakery,Barot,,,,,,,,,,,2026-06-28,41.3774363,2.1641201
bakery,Forn Verges,,,,,,,,,,,2026-06-28,41.4234133,2.1755617
bakery,Mestres Forners,,,,,,,,,,,2026-06-28,41.4250032,2.1763173
bakery,La Marquesa,,,,,,,,,,"Mo-Fr 08:00-20:00; Sa,Su 08:00-14:00",2026-06-28,41.4199909,2.1818106
bakery,La Rauxa de Cel,,,,,,,,,,,2026-06-28,41.4154333,2.1804021
bakery,Panissim,,,,,,,,,,,2026-06-28,41.4158877,2.1796088
bakery,Espan's,,,,,,,,,,"PH,Mo-Su 06:00-21:30",2026-06-28,41.3947392,2.1707728
bakery,Forn Vell,,,,,,,,,,,2026-06-28,41.406324,2.1674239
bakery,Big Ben,,,,,,,,,,,2026-06-28,41.4095717,2.183956
bakery,La Flor de Blat,,,,,,,,,,,2026-06-28,41.4171808,2.1752978
bakery,El Pan,,,,,,,,,,,2026-06-28,41.3834999,2.1294874
bakery,Croissanterie,,,,,,,,,,,2026-06-28,41.4111711,2.1762646
bakery,Forn de la Cantonada,,,,,,,,,,,2026-06-28,41.4111738,2.1768987
bakery,vicblat,,,,,,,,,,,2026-06-28,41.3845702,2.1637161
bakery,Forn Dolcetes,,,,,,,,,,,2026-06-28,41.3966262,2.1773703
bakery,L'obrador,,,,,,,,,,,2026-06-28,41.3841443,2.1635743
bakery,El forn del barri,,,,,,,,,,,2026-06-28,41.410987,2.1728208
bakery,Forn Franquesa,,,,,,,,,,,2026-06-28,41.4074464,2.1742187
bakery,Forn de Pa L'Eixample,,,,,,,,,,,2026-06-28,41.3880281,2.1614305
bakery,Santagloria,,,,,,,,,,,2026-06-28,41.4113105,2.1747701
bakery,Forn de Sant Tirs,,,,,,,,,,Mo-Fr 07:30-21:00; Sa 08:00-21:00,2026-06-28,41.402892,2.153361
bakery,Forn de pà Josep Rocamora,,,,,,,,,,,2026-06-28,41.4185102,2.1735166
bakery,Blat Sucre,,,,,,,,,,,2026-06-28,41.4180643,2.1988321
bakery,Pa d'Àngel,,,,,,,,,,,2026-06-28,41.4091307,2.1572098
bakery,Macxipan,,,,,,,,,,,2026-06-28,41.4164363,2.1872545
bakery,Forn Felip II,,,,,,,,,,,2026-06-28,41.418827,2.1892538
bakery,Forn Gilabert,,,,,,,,,,,2026-06-28,41.3831192,2.1569567
bakery,Le Fournil,,,,,,,,,Barcelona,,2026-06-28,41.4026929,2.1524337
bakery,Catafel,,,,,,,,,,,2026-06-28,41.4033891,2.1496593
bakery,Makus,,,,,,,,,,,2026-06-28,41.400847,2.1478464
bakery,Forns Del Pi,,,,,,,,,,,2026-06-28,41.3807389,2.1747901
bakery,Kina Barra,,,,,,,,08014,Barcelona,Mo-Fr 07:00-20:00; Sa-Su 07:00-15:00,2026-06-28,41.3716852,2.1391554
bakery,López,,,,,,,,,,,2026-06-28,41.3883348,2.1788504
bakery,Trigoolas,,,,,,,,,,Mo-Su 07:00-22:00,2026-06-28,41.3755997,2.131058
bakery,Baluard,,,,,,,,,,,2026-06-28,41.4024489,2.2014463
bakery,Santanach,,,,,,,,,,Mo-Fr 07:00-20:00;Sa 08:00-14:00;PH closed,2026-06-28,41.3863763,2.1592301
bakery,Panarras,,,,,,,,,,,2026-06-28,41.383677,2.1556519
bakery,Forn de pa Armengol,,,,,,,,,,,2026-06-28,41.397786,2.1766146
bakery,Pa artesà del Vallès,,,,,,,,,,,2026-06-28,41.4355315,2.1898677
bakery,Baluard Barceloneta,,,,,,,,08007,,,2026-06-28,41.3910122,2.1613273
bakery,Miralles,,,,,,,,,,,2026-06-28,41.4071816,2.1616247
bakery,Jhelum,,,,,,,,,,,2026-06-28,41.3819485,2.1663543
bakery,Forn de Pa Padró,,,,,,,,,,,2026-06-28,41.4305478,2.1726154
bakery,Can Bargalló,,,,,,,,,,,2026-06-28,41.3826554,2.1598661
bakery,Forn de Pa,,,,,,,,,,,2026-06-28,41.3884175,2.180728
bakery,Bonjour Gala,,,,,,,,,,,2026-06-28,41.4059895,2.1859945
bakery,7 dias,,,,,,,,,,Mo-Su 07:00-22:00,2026-06-28,41.4075011,2.183498
bakery,Art Dolç,,,,,,,,,,,2026-06-28,41.3846675,2.13938
bakery,Fleca pastrana,,,,,,,,,,,2026-06-28,41.425378,2.1563429
bakery,Pròxima,,,,,,,,,,,2026-06-28,41.4247382,2.1567225
bakery,Gloria. Forn de pa i pastisseria,,,,,,,,,,,2026-06-28,41.3866958,2.1374504
bakery,Forn de pa Bertran,,,,,,,,,,,2026-06-28,41.3972305,2.1729258
bakery,Pasteleria J.M. Rodriguez Guerola. cafeteria,,,,,,,,,,,2026-06-28,41.3992804,2.14358
bakery,Enrich,,,,,,,,,,Mo-Fr 07:00-20:00; Sa 07:00-14:00; Su 08:00-14:00,2026-06-28,41.3773221,2.1337848
bakery,Baldiri,,,,,,,,,,Mo-Fr 09:00-13:30; Mo-Fr 16:30-20:30; Sa 09:30-14:00,2026-06-28,41.3594407,2.1398666
bakery,Le Boulanger de Paris,,,,,,,,,,,2026-06-28,41.3765676,2.136291
bakery,El taller de pa,,,,,,,,,,,2026-06-28,41.3848637,2.1376339
bakery,Forn Demaspan,,,,,,,,,,,2026-06-28,41.3604274,2.1405303
bakery,Huguet,,,,,,,,,,,2026-06-28,41.3585815,2.1408295
bakery,El Molí,,,,,,,,08014,Barcelona,"Mo-Fr 07:00-21:00; Sa, Su 08:00-21:00",2026-06-28,41.3744488,2.1427008
bakery,365 Obrador,,,,,,,,08014,Barcelona,Mo-Su 06:00-22:00,2026-06-28,41.3683825,2.1315776
bakery,Forneria Tiana,,,,,,,,,,,2026-06-28,41.3802874,2.1770426
bakery,Forn del Padró,,,,,,,,,,,2026-06-28,41.3796065,2.1658989
bakery,"Forn de Pa ""artesà""",,,,,,,,,,,2026-06-28,41.4075665,2.1766233
bakery,Granja la Catalana,,,,,,,,,,,2026-06-28,41.3900463,2.1651423
bakery,Peter Pan,,,,,,,,,,Mo-Su 07:00-22:00; PH closed,2026-06-28,41.3836946,2.1539819
bakery,"Forn de pa l""Avinguda",,,,,,,,,,,2026-06-28,41.3759793,2.1538135
bakery,Fleca Iglesias,,,,,,,,,,,2026-06-28,41.3766241,2.1558519
bakery,Roous,,,,,,,,08014,Barcelona,,2026-06-28,41.3705202,2.1426538
bakery,Fruben,,,,,,,,,,,2026-06-28,41.419943,2.1802266
bakery,Laia,,,,,,,,,,"Mo-Fr 07:30-13:00, 17:00-20:30; sa-su 08:00-13:00, 17:00-20:30",2026-06-28,41.4234855,2.1819334
bakery,Forn Colón,,,,,,,,,,,2026-06-28,41.4115786,2.1859318
bakery,Forn del Montseny,,,,,,,,,,,2026-06-28,41.4176703,2.1895308
bakery,La Marieta,,,,,,,,,,,2026-06-28,41.4146173,2.1909522
bakery,Panamà,,,,,,,,,,,2026-06-28,41.3918497,2.1737886
bakery,Venecia,,,,,,,,,,"Mo-Fr 06:45-23:00; PH,Sa,Su 07:15-23:00",2026-06-28,41.3907976,2.1721302
bakery,El meu forn,,,,,,,,,,,2026-06-28,41.4053601,2.1690753
bakery,Forn de pa Santanach,,,,,,,,,,,2026-06-28,41.4022526,2.1998855
bakery,Forn Sant Tirs,,,,,,,,,,,2026-06-28,41.4045604,2.1561704
bakery,La Catarga,,,,,,,,,,Mo-Sa 08:00-21:00; Su 09:00-21:00,2026-06-28,41.4026164,2.1584993
bakery,Forn Padro,,,,,,,,,,,2026-06-28,41.427504,2.1750894
bakery,Forns Camps,,,,,,,,,,,2026-06-28,41.4253833,2.1911489
bakery,El Forn de L'Espiga dolca,,,,,,,,,,,2026-06-28,41.3987564,2.2064683
bakery,El teu pa,,,,,,,,,,,2026-06-28,41.4050341,2.2053819
bakery,MaxiPa,,,,,,,,,,,2026-06-28,41.3820857,2.1351168
bakery,Farina & Sons,,,,,,,,,,,2026-06-28,41.4266942,2.1551829
bakery,Delicious,,,,,,,,,,,2026-06-28,41.3823395,2.1498171
bakery,Jhanos,,,,,,,,,,,2026-06-28,41.3707319,2.1439503
bakery,Rovira Forners Patissers,,,,,,,,,,,2026-06-28,41.3708608,2.1459847
bakery,Can Girona,,,,,,,,,,,2026-06-28,41.4096423,2.2097123
bakery,Risueñ,,,,,,,,,,,2026-06-28,41.4206804,2.2049041
bakery,Bakery Melera,,,,,,,,,,,2026-06-28,41.4222373,2.2007563
bakery,Sun Coffee & Bakery,,,,,,,,,,Mo-Su 06:00-22:00,2026-06-28,41.3876905,2.143295
bakery,El fornet de'n Rossend,,,,,,,,,,,2026-06-28,41.3835967,2.1468922
bakery,Panadería Colombiana,,,,,,,,,,,2026-06-28,41.4048941,2.1729441
bakery,L'aroma del pa,,,,,,,,,,,2026-06-28,41.3992496,2.1655548
bakery,Pastelería bombonería Muntaner,,,,,,,,,,,2026-06-28,41.4032247,2.1376481
bakery,Pa i pastisseria,,,,,,,,08014,Barcelona,,2026-06-28,41.3685662,2.1314575
bakery,Fleca Irlanda,,,,,,,,,,Mo-Fr 06:30-19:30; Sa 06:30-13:30,2026-06-28,41.4310126,2.1857893
bakery,Oliver,,,,,,,,08014,Barcelona,,2026-06-28,41.3736984,2.1442496
bakery,Forns Escolà,,,,,,,,,,,2026-06-28,41.3788124,2.1912214
bakery,Croissanterie del Pi,,,,,,,,,,,2026-06-28,41.3835437,2.1740232
bakery,La Sitja,,,,,,,,,,,2026-06-28,41.4068064,2.1552091
bakery,El mos,,,,,,,,,,Mo-Su 07:00-20:45,2026-06-28,41.3852997,2.1714323
bakery,Puiggròs,,,,,,,,,,,2026-06-28,41.4070775,2.1742216
bakery,Forn Rovira,,,,,,,,,,"Mo-Sa 07:00-21:00; Su,PH 07:00-15:00",2026-06-28,41.3755827,2.1327973
bakery,Forn Francesc Miró,,,,,,,,,,,2026-06-28,41.3737089,2.1685462
bakery,Tartisse,,,,,,,,,,,2026-06-28,41.3828931,2.1691549
bakery,Forn del passeig,,,,,,,,,,,2026-06-28,41.4277473,2.1667356
bakery,Che Chipa,,,,,,,,,,,2026-06-28,41.4025033,2.1606309
bakery,Cafè del Nord,,,,,,,,,,Mo-Su 06:00-22:50,2026-06-28,41.3941697,2.1827349
bakery,Forn de pa Cal Moline,,,,,,,,,,,2026-06-28,41.3992885,2.1559576
bakery,Forn de pa artesà Goya,,,,,,,,,,,2026-06-28,41.3995783,2.1573236
bakery,Cal Moliné,,,,,,,,,,,2026-06-28,41.4002396,2.1535475
bakery,Fotns del Pi,,,,,,,,,,,2026-06-28,41.4221187,2.1789431
bakery,Forn de Sant Salvador,,,,,,,,,,,2026-06-28,41.4098161,2.1366547
bakery,Sant Tirs,,,,,,,,,,"Mo-Sa 08:00-20:30; Su,PH off",2026-06-28,41.3997835,2.1557045
bakery,Pistatxo,,,,,,,,,,,2026-06-28,41.3858528,2.1517842
bakery,L'art del Pa,,,,,,,,,,,2026-06-28,41.3859423,2.1518638
bakery,Pastisseria Artesana,,,,,,,,,,,2026-06-28,41.3868421,2.1803016
bakery,Petit pastís,,,,,,,,,,Tu-Fr 10:00-19:00; Sa 10:00-14:00,2026-06-28,41.404469,2.1701089
bakery,Oz,,,,,,,,,,08:30-20:30,2026-06-28,41.4004991,2.1574526
bakery,Forn Esplugues,,,,,,,,,,,2026-06-28,41.375483,2.1402762
bakery,Bou,,,,,,,,,,,2026-06-28,41.387715,2.1352866
bakery,Ecco,,,,,,,,,,,2026-06-28,41.4304234,2.1608452
bakery,El Obrador De Goya,,,,,,,,,,,2026-06-28,41.3998231,2.1451535
bakery,Goofretti,,,,,,,,,,,2026-06-28,41.3932947,2.1446715
bakery,Pa de Llet,,,,,,,,,,,2026-06-28,41.3838374,2.1535542
bakery,Brava,,,,,,,,,,,2026-06-28,41.3868199,2.153102
bakery,Massana,,,,,,,,,,,2026-06-28,41.4088246,2.1536588
bakery,Vila Forn de pa,,,,,,,,,,,2026-06-28,41.4182463,2.2075692
bakery,a27 bakehouse,,,,,,,,,,,2026-06-28,41.3812164,2.1684492
bakery,Antticca,,,,,,,,,,,2026-06-28,41.3861161,2.1374837
bakery,Horno de Santa Madrona,,,,,,,,,,"Mo-Fr 07:30-14:30,16:30-20:00; Sa 09:00-14:00",2026-06-28,41.3743941,2.1624762
bakery,Levaduramadre,,,,,,,,,,,2026-06-28,41.373913,2.1687953
bakery,Suca'l,,,,,,,,,,,2026-06-28,41.3884098,2.15106
bakery,Madeleine by Ferrieres,,,,,,,,,,,2026-06-28,41.3992948,2.1996982
bakery,Barbara Bakery,,,,,,,,,,,2026-06-28,41.4013921,2.206856
bakery,Pá Artesá Del Vallés,,,,,,,,,,,2026-06-28,41.4377932,2.1899534
bakery,Jon Cake,,,,,,,,,,,2026-06-28,41.3872701,2.1776061
bakery,Marie Blachère,,,,,,,,,,,2026-06-28,41.3847771,2.1720929
bakery,CHICA,,,,,,,,,,,2026-06-28,41.3938384,2.1695793
bakery,Mamma Tiramisù,,,,,,,,,,,2026-06-28,41.3814759,2.1741854
bar,Mescladís del Pou,+34933198732,fijo,info@mescladis.org,True,osm,https://www.mescladis.org/,Carrer dels Carders 35,08003,Barcelona,"Mo-Fr 13:00-21:00; Sa,Su 11:00-21:00",2026-06-28,41.3870865,2.1803497
bar,Café Berlin,+34932006542,fijo,cafeberlinbcn@gmail.com,True,osm,http://cafeberlinbarcelona.com/,Carrer de Muntaner 240,08021,Barcelona,,2026-06-28,41.3943566,2.1494599
bar,Contracorrent,+34608865917,movil,info@contracorrentbar.com,True,osm,https://contracorrentbar.com/,Carrer de Ribes 35,08013,,"Mo,Th 17:30-23:00; Fr-Su 12:30-16:30,19:00-23:00",2026-06-28,41.3955456,2.181968
bar,4Gats,+34933024140,fijo,4gats@4gats.com,True,osm,https://www.4gats.com/,Carrer de Montsió 3,08002,Barcelona,Tu 11:00-17:00; We-Fr 11:00-24:00; Sa 12:00-00:00; Su 12:00-17:00,2026-06-28,41.3857384,2.1736392
bar,Craft Barcelona,+34655500032,movil,info@craftbarcelona.com,True,osm,https://www.craftbarcelona.com/,Carrer del Paradís 4,08002,Barcelona,Mo off; Tu-We 18:00-01:00; Th 18:00-02:00; Fr 18:00-03:00; Sa 12:30-03:00; Su 17:30-01:00,2026-06-28,41.3831558,2.176977
bar,Marula Cafè,+34933187690,fijo,eventosbcn@marulacafe.com,True,website,https://marulacafe.com/,Carrer dels Escudellers 49,08002,Barcelona,,2026-06-28,41.3801499,2.1768532
bar,Bar Falstaff,+34932073924,fijo,info@barfalstaff.com,True,osm,http://barfalstaff.com/,Carrer de Venus 3,08012,Barcelona,Th 20:00-02:30; Fr-Sa 20:00-03:00,2026-06-28,41.3998575,2.1620158
bar,Creps al Born,+34932690325,fijo,crepsalbornbcn@gmail.com,True,osm,https://www.crepsalbornbcn.com/,Passeig del Born 12,08003,Barcelona,Mo-Th 17:30-02:30; Fr 17:30-03:00; Sa 12:00-03:00; Su 12:00-02:30,2026-06-28,41.3842949,2.1827139
bar,Kino,+34931798409,fijo,info@kinobcn.com,True,website,https://kinobcn.com/,Carrer de Ferlandina 23,08001,,Mo-Su 11:00-02:00,2026-06-28,41.3825992,2.1665452
bar,La Cervesera Artesana,+34932379594,fijo,mestrecerveser@lacervesera.net,True,osm,https://lacervesera.net,Carrer de Sant Agustí 14,08012,Barcelona,"Su,Tu-Th 17:00-01:00; Fr,Sa 17:00-03:00",2026-06-28,41.3981483,2.1608553
bar,Bar Canigó,+34932133049,fijo,info@barcanigo.com,True,website,http://www.barcanigo.com/,Carrer de Verdi 2,08012,Barcelona,Mo-Th 10:00-02:00; Fr 10:00-03:00; Sa 20:00-03:00,2026-06-28,41.4029724,2.1579186
bar,Homo Sibaris,+34931856693,fijo,guillem@homosibaris.com,True,osm,https://www.homosibaris.com/,Plaça d'Osca 4,,,Mo-Su 18:00-21:30,2026-06-28,41.3762147,2.1388121
bar,Cerveseria Jazz,+34934433259,fijo,info@cerveceriajazz.com,False,osm,http://www.cerveceriajazz.com,Carrer de Margarit 43,08004,Barcelona,Tu-Sa 19:00-00:00,2026-06-28,41.372246,2.1631577
bar,Kælderkold,+34932779671,fijo,olgodcraftbeer@gmail.com,True,website,https://www.kaelderkold.com/,Carrer del Cardenal Casañas 7,,,Su-Th 12:30-02:30; Fr-Sa 12:30-03:00,2026-06-28,41.3816113,2.1733408
bar,Pub Fiction,+34675499262,movil,contacto@privateaser.es,True,website,https://www.privateaser.es/local/5780-pub-fiction,Carrer de Casanova 96,08011,Barcelona,,2026-06-28,41.3871018,2.1569158
bar,La Terraza del Central,+34932957900,fijo,laterraza@grandhotelcentral.com,True,osm,https://www.grandhotelcentral.com/es/rooftop-barcelona/,Via Laietana 30,08003,Barcelona,Mo-Su 09:00-24:00,2026-06-28,41.385131,2.1778655
bar,BlackLab Brewhouse & Kitchen,+34633691906,movil,hola@blacklab.es,True,osm,https://blacklab.es,Plaça de Pau Vila 1,08039,Barcelona,"Mo,Tu 16:00-00:00; We,Th 12:30-00:00; Fr,Sa 12:30-01:00; Su 10:30-23:00",2026-06-28,41.3812305,2.1854573
bar,Futballarium Barcelona,+34603134441,movil,futballbar@gmail.com,True,osm,https://www.futballarium.com/,Carrer Benavent 7,08028,,,2026-06-28,41.3777739,2.1253238
bar,Boys Bar BCN,+34651680643,movil,boysbarbcn@gmail.com,True,website,https://www.boysbarbcn.com,Carrer de la Diputació 174,08011,Barcelona,"Tu-Th, Su 21:00-02:30; Fr-Sa 21:00-03:00",2026-06-28,41.3842857,2.1591274
bar,Punto BCN,+34934875140,fijo,tu@email.com,True,website,https://grupoarena.com,Carrer de Muntaner 65,08007,,"Tu 18:00-02:30; We 18:00-02:00; Th 18:00-02:30, Fr-Sa 18:00-03:00",2026-06-28,41.3866794,2.1591527
bar,Collonut,+34937634351,fijo,info@collonut.com,True,website,https://collonut.com/,Carrer d'Olesa 7,08027,,17:00-24:00; Sa-Su 11:00-17:00,2026-06-28,41.4197282,2.1830381
bar,Foxy Bar,+34931806004,fijo,wearefoxy@gmail.com,True,osm,https://wearefoxy.wordpress.com,Carrer de la Riera Alta 59,,,Su-Th 16:00-02:00; Fr-Sa 17:00-03:00,2026-06-28,41.3803273,2.1643441
bar,Barnabier,+34932210212,fijo,info@barnabier.com,True,website,https://www.barnabier.com/,Carrer de la Marina 16-18,08005,,,2026-06-28,41.387607,2.1977239
bar,Pampa Drugstore,+34933026014,fijo,clientes@pampadrugstore.com,True,website,https://www.pampadrugstore.net/,Carrer del Carme 7,08001,,Mo-Sa 10:00-21:00; Su 12:00-20:00,2026-06-28,41.3827176,2.1712051
bar,Vila's Bar,+34934069832,fijo,vilasgracia@gmail.com,True,osm,https://www.vilasbar.com,"Carrer de l'Alzina 2,4",08024,,Mo-We 17:00-24:00; Th 17:00-02:00; Fr 17:00-03:00; Sa 11:30-03:00; Su 11:30-01:00,2026-06-28,41.4059086,2.1571314
bar,IT - Italian Trattoria Barcelona,+34911675225,fijo,contacto@privateaser.es,True,website,https://www.privateaser.es/local/52720-it-italian-trattoria-barcelona,Ronda de la Universitat 35,08007,Barcelona,,2026-06-28,41.3872515,2.1676245
bar,La Raposa,+34931257954,fijo,hola@laraposacoop.org,True,osm,https://laraposacoop.wordpress.com/,Carrer de Tapioles 47,08004,Barcelona,Su-Tu 13:00-20:00; We-Sa 13:00-24:00,2026-06-28,41.3725137,2.1639527
bar,Casa Figari,+34935147528,fijo,usuario@dominio.com,True,website,https://www.casafigari.com/,Carrer del Torrent de l'Olla 141,,Barcelona,Mo-Su 10:00-21:00; Fr-Sa 10:00-23:00,2026-06-28,41.4035201,2.1555614
bar,Bollocks,+34663710095,movil,bollocksbcn@gmail.com,True,osm,https://www.bollocksbar.com/,Carrer Ample 46,08002,Barcelona,"Mo-Th,Su 19:00-02:30; Fr-Sa 19:00-03:00",2026-06-28,41.3810509,2.1805139
bar,Monaco Shisha Lounge,+34610872243,movil,management@monacoloungebcn.com,False,osm,https://www.monacoshishalounge.com,Carrer de Casanova 30,08011,Barcelona,"19:00-01:00; We,Th off; Fr,Sa 18:00-03:00",2026-06-28,41.3833212,2.1616932
bar,Jamboree Jazz & Dance Club,+34933041210,fijo,info@masimas.com,True,website,https://jamboreejazz.com,Plaça Reial 17,08002,,,2026-06-28,41.3797222,2.1752424
bar,Entre Latas,+34930154725,fijo,hola@entrelatas-bcn.com,True,osm,https://www.entrelatas-bcn.com/,Carrer del Parlament 7,08015,Barcelona,,2026-06-28,41.3756057,2.1613045
bar,Barna Brew,+34674415618,movil,alex@barnabrew.com,True,osm,https://www.barnabrew.com/,Carrer del Parlament 45,08015,Barcelona,Mo-Th 17:30-23:00; Fr 17:30-01:30; Sa 12:00-01:30; Su 12:00-22:30,2026-06-28,41.3773461,2.1635646
bar,Eldiset,+34932681987,fijo,info@eldiset.com,True,osm,https://eldiset.com/,Carrer Antic de Sant Joan 3,08003,Barcelona,,2026-06-28,41.3849901,2.1833885
bar,Cafe Kafka,+34933151776,fijo,info@cafekafka.es,True,osm,https://www.cafekafka.es/,Carrer de la Fusina 7,08003,Barcelona,,2026-06-28,41.386519,2.1832457
bar,La Plata,+34933151009,fijo,barlaplata@hotmail.es,True,website,https://barlaplata.com/,Carrer de la Mercè 28,08002,,,2026-06-28,41.3804049,2.1805946
bar,Estufas Guía,+34691331651,movil,david.navarro.rueda@gmail.com,True,osm,https://estufasguia.com/,Travessera de les Corts 142,08028,Barcelona,24/7,2026-06-28,41.3811286,2.1265834
bar,Brew Wild,+34913483586,fijo,info@brewwildpizzabar.com,True,website,https://www.brewwildpizzabar.com/,Carrer del Consell de Cent 244,,,"Mo-Th 18:00-00:00; Fr,Sa 13:00-01:00; Su 13:00-00:00",2026-06-28,41.3867826,2.159802
bar,D9,+34933099202,fijo,ramon@denou.bar,True,osm,https://denou.bar/,Carrer de Pallars 122,08018,,Su-Th 18:00-02:30; Fr-Sa 18:00-03:00,2026-06-28,41.3967903,2.1921194
bar,La Beata,+34937607256,fijo,info@barlabeata.com,True,osm,https://barlabeata.com,Carrer de Jesús 16,08012,Barcelona,Tu-Sa 18:00-24:00; Su 18:00-01:30,2026-06-28,41.3992409,2.1580325
bar,Garage Beer Co. Poblenou,+34934695373,fijo,tucorreo@gmail.com,True,website,https://garagebeer.co/,Passeig de Calvell 45,08005,Barcelona,Mo-Th 17:00-00:00; Fr 17:00-01:00; Sa 13:00-01:00; Su 13:00-00:00,2026-06-28,41.3987704,2.2071931
bar,Radio Nossa,+34675103073,movil,radionossafam@gmail.com,True,osm,https://radionossa.com,Carrer del Roser 3,08004,Barcelona,,2026-06-28,41.3743758,2.1673941
bar,LES COSINES,+34675548750,movil,vermuteria@lescosines.com,False,osm,https://lescosines.cat/,Carrer de Rosa Puig-Rodon Pla 14,08012,,,2026-06-28,41.4033498,2.1535956
bar,Salts,+34938065515,fijo,salts@saltsmontjuic.com,True,osm,https://www.saltsmontjuic.com/,Avinguda Miramar 31,08038,Barcelona,Mo-Th 11:00-23:00; Fr 11:00-00:00; Sa 10:30-00:00; Su 10:30-23:00,2026-06-28,41.3690547,2.1654635
bar,Bar Billar HDP,+34934154324,fijo,hdpbillar@gmail.com,True,osm,https://hdpbillar.com/,Carrer de Sant Joaquim 35,08012,Barcelona,Tu-Th 18:00-01:00; Fr-Sa 18:00-03:00; Su-Mo 18:00-00:00,2026-06-28,41.4017761,2.1550741
bar,Bonavida,+34605557323,movil,info@bonavidabcn.com,True,osm,https://www.bonavidabcn.com/,Carrer de Casp 22,,,,2026-06-28,41.3893117,2.1708667
bar,Boro Bar,+34933175705,fijo,info@borobar.es,True,osm,https://www.borobar.es/,Carrer de la Diputació 286,08009,,,2026-06-28,41.3925304,2.1701036
bar,La perla negra,+34934216773,fijo,carrerdesants@carrerdesants.cat,True,website,https://www.carrerdesants.cat/es/socio/la-perla-negra,Carrer de l'Espanya Industrial 14,08014,Barcelona,Tu-Th 18:00-23:59; Fr-Sa 19:00-23:59; Sa 00:00-01:00; Sa-Su 12:00-16:00;,2026-06-28,41.3758973,2.1406084
bar,Casa Astor,+34936792112,fijo,casa.astor.bcn@gmail.com,True,osm,https://www.casaastor.cat/,Carrer de Santa Caterina 6,08014,Barcelona,Mo off; Tu 20:00-00:30; We 20:00-01:30; Th 20:00-01:30; Fr 20:00-02:30; Sa 20:00-02:30; Su 20:00-00:00,2026-06-28,41.3780065,2.1372878
bar,Bodegón Club,+34649429181,movil,poetryisnotdeadproject@gmail.com,True,osm,https://linktr.ee/poetryisnotdead,Carrer del Guadiana 8,08014,Barcelona,,2026-06-28,41.3749103,2.1390115
bar,Bar Sauvage,+34938325184,fijo,bs@barsauvage.com,True,osm,https://www.barsauvage.com,Passeig del Born 13,,,"Mo-Th,Su 20:00-03:00; Fr-Sa 19:00-03:30",2026-06-28,41.3845406,2.1824839
bar,Magma Bar,+34645960430,movil,mail@magma.barcelona,True,osm,https://magma.barcelona/,Plaça de Santa Caterina 1,08003,Barcelona,Tu-Sa 18:00-02:30,2026-06-28,41.3854153,2.1787973
bar,Club Sauvage - Live Music & Club Sessions,+34919175461,fijo,contacto@privateaser.es,True,website,https://www.privateaser.es/local/53215-club-sauvage-live-music-club-sessions,7 Plaça Reial,08002,Barcelona,,2026-06-28,41.3805508,2.1751888
bar,Ovosodo,+34633333849,movil,ovosodobar@gmail.com,True,osm,https://ovosodo.eatbu.com,Avinguda de la Mare de Déu de Montserrat 62,08024,Barcelona,"Mo-We 11:00-16:00,19:00-23:30; Fr,Sa 11:00-23:30; Su 11:00-17:00",2026-06-28,41.4146119,2.1646222
bar,La Klaka,+34639837637,movil,laklaka2021@gmail.com,True,osm,https://www.laklaka.es/,Carrer de Coll 15,08027,,,2026-06-28,41.4245979,2.1901442
bar,2D2Dspuma,,,2d2dspuma@gmail.com,True,website,https://www.2d2dspuma.com/,Carrer de la Manigua 8,08027,Barcelona,"Mo-Th 18:00-23:30; Fr,Sa 18:00-01:30",2026-06-28,41.4225197,2.1794431
bar,Michael Collins,,,hello@michaelcollinspubs.com,True,website,https://michaelcollinspubs.com/,Plaza Sagrada Familia 4,08013,,"Su-Th 13:00-02:30; Fr,Sa 13:00-03:00",2026-06-28,41.4021669,2.1724823
bar,Bar Delicias,+34934292202,fijo,,,,http://barrestaurantedelicias.com/,Carrer de Mühlberg 1,08024,Barcelona,Tu-Su 10:00-16:00;Tu-Th 19:00-22:30;Fr-Sa 20:00-23:30,2026-06-28,41.4182484,2.1575442
bar,23 Robadors,,,23robadors@gmail.com,True,website,https://23robadors.com,Carrer d'en Robador 23,,,,2026-06-28,41.3796029,2.1708903
bar,Dry Martini,+34932175072,fijo,,,,https://www.drymartiniorg.com/locales/dry-martini-v2/,Carrer d'Aribau 162,08036,Barcelona,Mo-Th 13:00-02:30; Fr-Sa 13:00-03:00; Su 16:30-01:30,2026-06-28,41.3927442,2.1539985
bar,Shôko,,,shoko@shoko.biz,True,website,https://shoko.biz/,Passeig Marítim del Port Olímpic 36,08005,Barcelona,,2026-06-28,41.3854991,2.1969746
bar,Bar del Pla,,,info@bardelpla.cat,True,website,https://www.bardelpla.cat/,Carrer de Montcada 2,,Barcelona,Mo-Th 12:00-23:00; Fr-Sa 12:00-00:00,2026-06-28,41.3856036,2.1800221
bar,La Carrà,,,hola@believegroup.cat,True,website,https://lacarrabcn.com/,Carrer de Muntaner 34,08011,Barcelona,,2026-06-28,41.385625,2.1610238
bar,New Chaps,+34932155365,fijo,,,,http://www.newchaps.com/,Avinguda Diagonal 365,,Barcelona,Mo-Th 21:00-03:00; Fr-Sa 21:00-03:30; Su 19:00-03:00,2026-06-28,41.3970928,2.1628073
bar,Tarannà,+34931061193,fijo,,,,https://tarannacafe.com/,Carrer de Viladomat 23,,,,2026-06-28,41.3761574,2.1617615
bar,Tinta Roja,+34934433243,fijo,,,,http://www.tintaroja.cat,Carrer de la Creu dels Molers 17,,,"We 20:30-00:30; Th 20:30-02:30; Fr, Sa 20:30-03:00",2026-06-28,41.3742741,2.1619869
bar,Ginger,+34933105309,fijo,,,,http://ginger.cat/GINGER_BARCELONA/welcome_to_Ginger_Barcelona.html,Carrer de la Palma de Sant Just 1,08002,Barcelona,Tu-Sa 19:30-02:30,2026-06-28,41.382757,2.1785313
bar,Bodega La General,+34934637337,fijo,,,,https://bodega-la-general.negocio.site/,Passatge del Vapor Vell 12,,,,2026-06-28,41.3767983,2.1353134
bar,La tavern de barcelona,+34933017653,fijo,latavernadebarcelona@hotmail.com,True,osm,,Ronda de la Universitat 37,08007,,,2026-06-28,41.387328,2.1679739
bar,Abirradero,+34934619446,fijo,abirradero@gmail.com,True,osm,,Carrer de Vila i Vilà 77,08004,Barcelona,"Mo,Tu 11:00-24:00; We,Th 11:00-01:00; Fr,Sa 10:00-01:00; Su 10:00-24:00",2026-06-28,41.3741864,2.1684764
bar,Bar Cugat,+34931398194,fijo,,,,http://barcugat.com,Carrer del Bruc 97,08009,,Mo-Th 09:00-00:30; Fr 09:00-02:30; Sa 11:00-02:30,2026-06-28,41.3955828,2.1676294
bar,Garage Beer Co,,,tucorreo@gmail.com,True,website,https://garagebeer.co/,Carrer del Consell de Cent 261,,,,2026-06-28,41.3870022,2.1600957
bar,Dmen's,,,tu@email.com,True,website,https://www.grupoarena.com/,Carrer del Consell de Cent 257,08011,Barcelona,Fr-Sa 22:00-03:00,2026-06-28,41.3868645,2.1599115
bar,Mama Cheva,,,info@rumas.coffee,True,osm,http://rumas.coffee/,Carrer de Moià 13,,,Mo-Fr 09:00-17:00,2026-06-28,41.3949117,2.1515484
bar,Polaroid bar,+34931866669,fijo,polaroidbar@gmail.com,True,osm,,Carrer dels Còdols 29,,,,2026-06-28,41.3793301,2.1787723
bar,Elephanta,,,elephanta@elephanta.cat,True,website,https://elephanta.cat/,Carrer del Torrent d'en Vidalet 37,,,,2026-06-28,41.4047833,2.1584509
bar,Monkey Factory,+34936817893,fijo,monkeyfactorybcn@gmail.com,True,osm,,Carrer de Còrsega,08036,Barcelona,Tu-Sa 18:30-03:00,2026-06-28,41.3927261,2.1544614
bar,Sidreria el Furaco,+34932651783,fijo,,,,https://www.elfuracu.com,Carrer de Girona 52,08009,Barcelona,"We,Th,Su 12:00-16:00; Fr,Sa 12:00-16:00,20:00-23:00",2026-06-28,41.3938159,2.1726665
bar,Belchica,+34625814001,movil,,,,http://belchica.be,Carrer de Villarroel 60,,,,2026-06-28,41.3835729,2.1591619
bar,La Suite Barcelona,,,info@lasuitebcn.com,True,website,https://www.lasuitebcn.com,Carrer de Tarragona 177,08014,Barcelona,24/7,2026-06-28,41.3797323,2.1428867
bar,Dr Stravinsky,,,info@drstravinsky.cat,True,osm,https://drstravinsky.cat,Carrer dels Mirallers 5,08003,Barcelona,,2026-06-28,41.3841796,2.1806721
bar,Dux Gin & Cocktail Bar Barcelona,,,info@duxborne.com,True,website,https://duxborne.com,Carrer dels Vigatans 13,08003,,Su-Th 18:30-02:00; Fr-Sa 18:30-02:30,2026-06-28,41.384384,2.1800592
bar,The Black Horse Pub,+34933152053,fijo,,,,http://www.pubblackhorse.com,Carrer d'Allada-Vermell 16,08003,,Mo-Su 13:00-02:00,2026-06-28,41.386568,2.1811814
bar,Morro Fi,,,info@morrofi.cat,True,website,https://morrofi.cat/,Passeig de la Bonanova 105,,Barcelona,"Mo-Sa 12:00-16:00, 18:00-23:30; Su 12:00-16:00, 18:00-22:00; PH 12:00-16:00, 18:00-22:00",2026-06-28,41.4012224,2.1240569
bar,360°,+34933201490,fijo,,,,https://www.terrazeo.com/terraza/terraza-del-hotel-barcelo-raval/,Rambla del Raval 17-21,08001,Barcelona,11:00-01:00,2026-06-28,41.3790957,2.1696433
bar,Obama,+34933016524,fijo,,,,https://www.obamabcn.com/,Gran Via de les Corts Catalanes 603,,,,2026-06-28,41.3888546,2.1670577
bar,Coco Vintage Market,+34936314590,fijo,,,,https://cocovintagemarket.com/,Passatge de Josep Llovera 7,08021,,,2026-06-28,41.3959776,2.1481192
bar,Scobies Irish Pub,+34936011908,fijo,,,,https://scobiesirishpub.com/,Ronda de la Universitat 8,,Barcelona,Mo-Th 12:00-02:00; Fr-Sa 13:00-03:00; Su 13:00-02:30; PH 13:00-00:00,2026-06-28,41.3863223,2.1662298
bar,Cerveseria El Tap,+34935396413,fijo,,,,http://eltap.es,Carrer de Constança 8,08029,Barcelona,"Mo-Th, Su 12:00-00:00; Fr, Sa 12:00-01:30",2026-06-28,41.3880943,2.1361855
bar,El Sabor Cubano,+34674988863,movil,,,,https://el-sabor-cubano-de-gracia.negocio.site/,Carrer de Francisco Giner 32,08012,Barcelona,"Mo-Su 21:00-03:00,16:00-21:00",2026-06-28,41.3993625,2.1589245
bar,Cabo,+34936762354,fijo,,,,https://grupocabo.es/cabo-bar/,Carrer de la Marina 124,08013,Barcelona,,2026-06-28,41.3964797,2.1851438
bar,101,+34633711066,movil,,,,http://www.bar101.es/,Carrer de Sugranyes 101,08028,Barcelona,Mo-Su 07:00-02:30,2026-06-28,41.371555,2.1305323
bar,Etniko Cocktail Bar,+34627189478,movil,contacto@privateaser.es,True,website,https://www.privateaser.es/local/5827-Etniko-Cocktail-Bar,,08003,Barcelona,"Fr,Sa 18:00-03:00; Su-Th 18:00-02:30",2026-06-28,41.3837436,2.1826835
bar,Lambicus,,,info@lambicus.com,True,website,https://lambicus.com/,Carrer de Tamarit,,,,2026-06-28,41.3759389,2.157176
bar,Tumatey,+34931587092,fijo,,,,https://www.tumatey.com/,Avinguda Diagonal 357,,,,2026-06-28,41.3974961,2.1644077
bar,La Viblioteca,+34932844202,fijo,,,,https://viblioteca.com/,Carrer de les Guilleries 10,08012,Barcelona,,2026-06-28,41.403273,2.1567918
bar,La Whiskeria,,,whiskeriabcn@gmail.com,True,website,https://lawhiskeria.es/,Carrer de les Sitges 3,,Barcelona,,2026-06-28,41.3842445,2.1697428
bar,Hijos de cain Bar,,,hijoscain@hotmail.com,True,osm,http://www.hijosdecain.es/,Carrer de Pallars 122,08018,,Fr-Sa 22:30-03:00,2026-06-28,41.3966728,2.1919552
bar,Bar Torpedo,+34938583760,fijo,,,,https://bartorpedo.com/,Carrer d'Aribau 143,08036,Barcelona,"Mo,We,Su 13:30-02:00; Th-Sa 13:30-03:00; Tu off",2026-06-28,41.3922397,2.1538817
bar,La Traviesa,,,info@latraviesatuset.com,True,osm,https://www.latraviesatuset.com/,Carrer de Tuset 28,,,,2026-06-28,41.3962698,2.1516852
bar,La Deskomvnal,,,info@ladeskomunal.coop,True,website,https://ladeskomunal.coop/,Carrer del Tenor Masini 5,,,,2026-06-28,41.3759065,2.1322658
bar,Steam City Cocktail Bar | by COBA,+34622721916,movil,info@groupcoba.com,True,osm,,Carrer del Comte d'Urgell 134,08011,Barcelona,"Mo-Th 18:00-02:30; Fr,Sa 16:00 - 03:00; Su 16:00-02:30",2026-06-28,41.3850996,2.1549228
bar,Quillo,+34931383130,fijo,,,,https://quillo-bar.com,Carrer del Rec Comtal 2,08003,Barcelona,12:00-01:00,2026-06-28,41.3891366,2.1796504
bar,Oblicuo Hi-Fi,,,info@oblicuohifibar.com,True,website,https://www.oblicuohifibar.com,Carrer de la Riera de Sant Miquel 59,08006,Barcelona,We 20:00-02:00; Th 21:00-02:00; Fr-Sa 21:00-03:00; Su 19:30-22:30,2026-06-28,41.3984717,2.1549883
bar,Retruc,+34934231659,fijo,retruc_retruc@hotmail.es,True,osm,,Gran Via de les Corts Catalanes 399,,Barcelona,,2026-06-28,41.3768861,2.1511233
bar,Cyclic Beer Farm,,,info@cyclicbeerfarm.com,True,website,https://cyclicbeerfarm.com/,Carrer de Coll 37,08027,,"Th,Sa 18:00-00:00; Fr 18:00-01:00",2026-06-28,41.4245412,2.1891418
bar,Mescladís Bostik,+34931863859,fijo,,,,https://www.mescladis.org/noticia/mescladis-bostik,Carrer de Ferran Turné 1-11,08027,Barcelona,,2026-06-28,41.4244918,2.1930221
bar,Lilith & sons,,,contact@lilithandsons.com,False,osm,https://www.lilithandsons.com/,Carrer d'en Fontrodona 23,08004,Barcelona,Mo-Su 19:00-23:59; Mo-Su 00:00-2:30;,2026-06-28,41.3731086,2.1671059
bar,Nick,,,info@discotecanick.com,True,osm,https://www.discotecanick.com/,Avinguda de Madrid 160,08028,Barcelona,Mo-Su 00:00-06:00; Mo-Fr 11:30-23:59; Sa-Su 10:00-23:59;,2026-06-28,41.3802678,2.131317
bar,Denassus,,,info@denassus.com,True,website,https://www.denassus.com/,Carrer de Blai 53,,,"Fr, Sa 13:00-00:00; Tu-Th, Su 13:00-23:00",2026-06-28,41.3742854,2.1627613
bar,Bar Centre Cívic Guinardó,+34657829945,movil,,,,https://ajuntament.barcelona.cat/ccivics/guinardo/bar/,Passatge del Torrent d'en Melis,08041,Barcelona,,2026-06-28,41.4163131,2.172093
bar,Priscilla Cafè,,,hola@believegroup.cat,True,website,https://priscillacafe.com,Carrer del Consell de Cent 273,,Barcelona,"Mo-Th, Su 10:00-03:00; Fr-Sa 10:00-03:30",2026-06-28,41.3876718,2.1609609
bar,Botanicus Cocktail Bar,,,botanicusbarcelona@gmail.com,True,osm,https://www.botanicusbcn.com/,Carrer de Pujades 177,08005,Barcelona,Mo-Su 18:00-03:00,2026-06-28,41.4020152,2.2009443
bar,Milanesa,,,milanesabarcelona@gmail.com,True,osm,https://milanesabarcelona.com/,Carrer de Nàpols 196,08013,,Mo-Sa 11:00-00:00; Su 13:00-23:00,2026-06-28,41.3990948,2.1747046
bar,BPM Bar,+34650323165,movil,contacto@privateaser.es,True,website,https://www.privateaser.es/local/51140-bpm-bar,,,,,2026-06-28,41.4068168,2.1841962
bar,Cristis Cocktail Bar,+34911670905,fijo,contacto@privateaser.es,True,website,https://www.privateaser.es/local/51142-Cristis-cocktail-bar,,,,,2026-06-28,41.3766244,2.1630259
bar,Wild Rover,+34910780665,fijo,contacto@privateaser.es,True,website,https://www.privateaser.es/local/50062-wild-rover-bar,,,,,2026-06-28,41.3774478,2.1753125
bar,Neverland Cocktail Bar,+34910780676,fijo,contacto@privateaser.es,True,website,https://www.privateaser.es/local/51748-Neverland,,,,,2026-06-28,41.4088531,2.1792682
bar,Cal pinxo panxo,+34934464181,fijo,,,,https://cartadigital.barmanagerapp.com/site/index/show/CALPINXO2,Carrer del Dos de Maig 256,,,,2026-06-28,41.408608,2.1803282
bar,5o pino,+34932522281,fijo,,,,http://quintopino.es/,Passeig de la Bonanova 98,08017,,Mo-Fr 08:00-00:30; Sa-Su 09:00-00:30,2026-06-28,41.4011946,2.1230731
bar,GinGin Gay Queer Bar,,,hola@believegroup.cat,True,website,https://gingingaybar.com/,Carrer d'Aribau 40,,Barcelona,Mo-Th 17:00-03:00; Fr-Sa 17:00-03:30; Su 17:00-03:00,2026-06-28,41.387636,2.1605547
bar,Plata Cocktail Bar,,,cocktailbar@platabar.com,True,website,https://www.platabar.com/,Carrer del Consell de Cent 233,,Barcelona,Mo-Th 21:00-01:30; Fr-Sa 21:00-02:30; Su 21:00-01:30,2026-06-28,41.3858971,2.1585295
bar,Moeem Barcelona,,,moeem@moeembarcelona.com,True,website,https://www.moeembarcelona.com/,Carrer de Muntaner 11,,Barcelona,Th 18:00-02:30; Fr-Su 18:00-03:00; Mo 18:00-02:30,2026-06-28,41.3840599,2.1626231
bar,Honey Bears Barcelona,,,hola@believegroup.cat,True,website,https://honeyfurrybar.com/,Carrer de la Diputació 203,,Barcelona,Mo-Th 18:00-02:30; Fr-Sa 18:00-03:00; Su 18:00-02:30,2026-06-28,41.3862819,2.1613266
bar,La Cervecera del Poblenou,+34613169681,movil,,,,https://cervesers.cat,Passatge Ratès 13,08018,,Mo-Fr 14:00-16:00,2026-06-28,41.3988872,2.1892757
bar,Bar Xatu,,,hola@xatu.cat,False,website,https://www.barxatu.com/,Carrer de Rogent 50,,,,2026-06-28,41.4095046,2.1843077
bar,la Caseta del Migdia,+34617956572,movil,,,,https://lacaseta.org/,Camí del Molí,,Barcelona,Sa-Su 12:00-18:00; PH 12:00-18:00,2026-06-28,41.3596833,2.1607145
bar,La Confiteria,,,info@confiteria.cat,True,website,http://confiteria.cat/,,,,,2026-06-28,41.3754806,2.1678977
bar,Pirineus 1935 Bar & Cuina,,,pinneos1935@telefonica.net,True,osm,,Carrer de Bailen 244,08037,Barcelona,Mo-Su 07:00-02:30,2026-06-28,41.4037112,2.1620046
bar,Jazz Sí Club,,,,,,https://tallerdemusics.com/jazzsi-club/,Requesens 2,,,,2026-06-28,41.3798228,2.1641449
bar,Bar Fidel,,,,,,http://bar-fidel.com/,Carrer de Ferlandina 24,,Barcelona,,2026-06-28,41.3819082,2.1653476
bar,Bar Jai-Ca Barceloneta,,,,,,http://guiadigital.barcelonetapladebarris.cat/markets/view/bar-jai-ca,Ginebra 13,08003,,,2026-06-28,41.3816466,2.1881927
bar,Bar Morryssom,+34934584017,fijo,,,,,Carrer de Girona 162,08009,Barcelona,Mo-Fr 08:00-01:00; Sa 08:00-18:00,2026-06-28,41.3994885,2.165101
bar,El Paraigua,,,,,,https://www.elparaigua.com/,Carrer del Pas de l'Ensenyança 2,08002,,,2026-06-28,41.3819109,2.1767686
bar,Cassette Bar,,,,,,https://myspace.com/cassettebarbarcelona,Carrer de l'Est 11,,,Fr-Sa 19:00-03:00; Mo-Th 19:00-02:30,2026-06-28,41.3774595,2.1735544
bar,"Linea 6,25",,,,,,http://www.linea625.com/,Carrer d'Enric Granados 52,,,,2026-06-28,41.3913626,2.1578937
bar,El Rabipelao,,,,,,https://app.resmio.com/el-rabipelao/menu-widget?,Carrer del Torrent d'en Vidalet 22,,Barcelona,Tu-Th 19:00-24:00; Fr-Sa 19:00-02:45,2026-06-28,41.4037055,2.1598503
bar,Oviso,+34932695146,fijo,,,,,Carrer de n'Arai 5,,,"Mo-Th,Su 10:00-24:30; Fr-Sa 10:00-01:30",2026-06-28,41.3806763,2.177069
bar,Belushi's,,,,,,https://www.belushis.com/bars/barcelona,Carrer de Bergara 3,08002,Barcelona,,2026-06-28,41.3860376,2.1674444
bar,The George Payne,,,,,,http://www.thegeorgepayne.com/,Plaça d'Urquinaona 5,08010,Barcelona,"Mo-We 13:00-02:00; Th, Su 13:00-02:30; Fr, Sa 13:00-03:00",2026-06-28,41.3895384,2.1729617
bar,Milk,,,,,,http://milkbarcelona.com/,Carrer d'en Gignàs 21,08002,,,2026-06-28,41.3813306,2.1801063
bar,Bar Marsella,+34934427263,fijo,,,,,Carrer de Sant Pau 65,08001,Barcelona,,2026-06-28,41.3782418,2.1712432
bar,Bodega Sopena,+34932311505,fijo,,,,,Carrer del Clot 55,08018,,,2026-06-28,41.4078382,2.1881211
bar,Celler Panotxa,+34654366853,movil,,,,,Carrer de Sant Joan de Malta 53,08018,,,2026-06-28,41.4086673,2.1927392
bar,Chito's Bar,+34932682373,fijo,,,,,Carrer de Ginebra 20,,,,2026-06-28,41.3816344,2.1888164
bar,Raimon Social Club,,,,,,http://raimonclub.com,Nou de Zurbano 7,08002,Barcelona,,2026-06-28,41.379361,2.1757821
bar,El Vaso de Oro,+34933193098,fijo,,,,,Carrer de Balboa 6,08003,Barcelona,Mo-Su 12:00-00:00,2026-06-28,41.3818636,2.1872472
bar,Les Més Petita,+34672921591,movil,,,,,Carrer de la Diputació 30,08015,Barcelona,"Mo,Tu 18:00-22:30; We,Th 18:00-23:30; Fr,Sa 18:00-00:30; Su 13:00-16:00,18:00-22:30",2026-06-28,41.3783468,2.1512839
bar,Heliogàbal,,,,,,https://www.heliogabal.com/,Carrer de Ramón y Cajal 80,,,,2026-06-28,41.4035629,2.1603403
bar,El Cafè Blau,+34932471659,fijo,,,,,Carrer de Casp 192,08013,Barcelona,Mo-Fr 10:30-22:30; Sa 12:00-24:00; Su off,2026-06-28,41.3983385,2.182871
bar,Bodega Carol,+34932451199,fijo,,,,,Carrer d'Aragó 558,,,"Tu, We 09:30-15:00, 18:00-22:00; Th 09:30-15:00, 18:00-23:00; Fr 09:30-23:30; Sa 11:30-23:30; Su 12:00-17:00",2026-06-28,41.4069241,2.1848471
bar,Dunne's Irish Bar & Restaurant,+34932689917,fijo,,,,,Via Laietana 19-21,08003,,,2026-06-28,41.383583,2.1790088
bar,Cal Oksana,+34638583067,movil,,,,,Carrer de Casanova 110,,,Mo-Su 19:00-12:00,2026-06-28,41.3876408,2.1560748
bar,Bar Scorpio,+34932327506,fijo,,,,,Carrer d'Alí Bei 6,08010,Barcelona,,2026-06-28,41.3914649,2.178304
bar,Sonora Sport Tavern,+34911674692,fijo,,,,,Carrer de Pamplona 96,08018,Barcelona,,2026-06-28,41.3978888,2.189968
bar,Le Cyrano,+34618937769,movil,,,,,Carrer d'Aribau 154,08036,Barcelona,,2026-06-28,41.3922227,2.1544994
bar,Champanillo el Menorca,+34931241748,fijo,,,,,Carrer de Cantàbria 52,,,,2026-06-28,41.4213856,2.1993078
bar,Bacon Bear Bar,,,,,,https://baconbearbar.com/,Carrer de Casanova 64,,Barcelona,Mo-We 18:30-03:00; Th 19:00-03:00; Fr-Sa 18:30-03:30; Su 18:30-03:00,2026-06-28,41.3852769,2.1591432
bar,Anahuac,+34932185237,fijo,,,,,Tuset 32,08006,Barcelona,,2026-06-28,41.3965161,2.1513989
bar,Can Ros,+34934571980,fijo,,,,,Carrer de Roger de Flor 303,,,"Mo-Fr 07:00-00:00, 09:00-18:00; Su 08:00-00:00",2026-06-28,41.4049984,2.1642241
bar,Sor Rita,,,,,,http://sorritabar.es,Carrer de la Mercè 27,08002,,,2026-06-28,41.3809099,2.1808768
bar,Balius,+34933158650,fijo,,,,,Carrer de Pujades 196,08005,Barcelona,,2026-06-28,41.4022025,2.2016256
bar,La Rovira,+34934638788,fijo,,,,,Carrer de Rabassa 23,,,"Mo-We,Su 09:00-00:00; Th 09:00-01:00; Fr,Sa 09:00-02:00",2026-06-28,41.4074975,2.1580906
bar,Ølgod,,,,,,https://es.olgodbcn.com/,Carrer de l'Hospital 74,,,"Su-Th 19:00-02:30; Fr,Sa 19:00-03:00",2026-06-28,41.3801343,2.1691571
bar,Ina,+34663476017,movil,,,,,Carrer dels Carders 43,,,"Mo, We-Fr 09:30-16:00, 19:00-01:30; Sa 09:30-01:30; Su 09:30-23:00",2026-06-28,41.3872947,2.1804299
bar,Cervesaria Creta,+34677457809,movil,,,,,Carrer de Pau Alsina 79,08024,,Tu-Sa 17:00-23:00,2026-06-28,41.4100051,2.1622617
bar,Bar-Bero,+34934344638,fijo,,,,,Carrer de Mandri 35,08022,Barcelona,,2026-06-28,41.4034818,2.1333701
bar,Estudiantil,+34933023125,fijo,,,,https://barestudiantil.net/,,,,Mo-Su 09:00-23:00,2026-06-28,41.3863093,2.1646356
bar,Frankfurt Jazz Band,+34934414002,fijo,,,,,Carrer Nou de la Rambla 109,08004,,"Mo-Fr 18:00-02:30, Fr,Sa 18:00-03:30, Su 18:00-02:30",2026-06-28,41.3746019,2.1698284
bar,Bitacora,+34932778712,fijo,,,,,Plaça de la Unió 24,08005,Barcelona,,2026-06-28,41.4009899,2.2047175
bar,Bar La Cantonada,+34933859110,fijo,,,,,Plaça de la Cultura 4,08020,Santa Coloma de Gramenet,,2026-06-28,41.4215977,2.2069455
bar,Sincopa,+34932687560,fijo,,,,,Carrer d'Avinyó 35,08002,Barcelona,,2026-06-28,41.3803881,2.1789886
bar,Bar Rala 2,+34933305001,fijo,,,,,Carrer de Sabino Arana 60,,,,2026-06-28,41.3867174,2.1235758
bar,MutiClub,+34933885866,fijo,,,,,Carrer de Còrsega 318,08037,,,2026-06-28,41.3973502,2.1607595
bar,Petit Montjuic,+34629715943,movil,,,,,Carrer de Sant Isidre 2,08004,,"Tu-Su 11:00-16:00,19:00-23:00; Mo 00:00-24:00",2026-06-28,41.3709606,2.158546
bar,El Cine,+34932177852,fijo,,,,,Carrer del Torrent de l'Olla 21,,,,2026-06-28,41.3993226,2.1603032
bar,Los Jardines,+34934300084,fijo,,,,,Travessera de les Corts 350,08029,Barcelona,,2026-06-28,41.389813,2.1404758
bar,Colmado,,,,,,https://colmadobcn.com/,Carrer de Provença 236,,,Mo-Th 09:00-02:00; Fr 09:00-03:00; Sa 10:00-03:00; Su 10:00-02:00,2026-06-28,41.3916963,2.1577094
bar,in blue,+34934191130,fijo,,,,,Travessera de les Corts 300,08029,Barcelona,Mo-Th 08:00-19:00; Fr 08:00-03:00; Sa 07:00-03:00,2026-06-28,41.3877036,2.1368756
bar,Gats,+34931440044,fijo,,,,,Carrer d'en Xuclà 7,08001,,,2026-06-28,41.3829971,2.170653
bar,Bar 1800,+34934424435,fijo,,,,,Rambla del Raval 1,,,,2026-06-28,41.3798131,2.1685175
bar,Bodega Salvat,+34930114622,fijo,,,,,Carrer d'Andalusia 2,08014,Barcelona,Mo 09:00-22:00; Tu-Sa 09:00-22:30; Su 09:00-16:00,2026-06-28,41.3711848,2.1345217
bar,Bar Sandwicheria Enka 3,+34625612988,movil,,,,,Carrer de Sants 384,08028,Barcelona,,2026-06-28,41.3758876,2.1221107
bar,San Fermín,+34934537586,fijo,,,,,Carrer de València 215,,,Mo-Fr 07:10-19:00; Su 09:15-16:00,2026-06-28,41.3906484,2.1603919
bar,Bar Sugranyes,+34934324108,fijo,,,,,Carrer de Sugranyes 62,08028,Barcelona,Tu-Sa 09:00-21:00; Su 11:00-21:00,2026-06-28,41.3731088,2.1290611
bar,La cantonada de Bacardí,+34936399489,fijo,,,,,Carrer de Bacardí 23,08028,Barcelona,,2026-06-28,41.3727248,2.1281872
bar,Sazón y rumba,+34602898748,movil,,,,,Carrer de Jaume Roig 31,08028,Barcelona,,2026-06-28,41.376726,2.1256136
bar,La cáscara,+34930134688,fijo,,,,,Carrer de Sants 308,08028,Barcelona,,2026-06-28,41.3757251,2.1253583
bar,Bar - Restaurant Arizala,+34933339171,fijo,,,,,Carrer de Roger 2,08028,Barcelona,,2026-06-28,41.3761219,2.1253683
bar,Santin,+34647878589,movil,,,,,Carrer de Ventura Plaja 7,08028,,,2026-06-28,41.3749859,2.1271152
bar,Bar Gaudí,+34660169361,movil,,,,,Carrer de Ventura Plaja 17,08028,Barcelona,,2026-06-28,41.3747571,2.1265776
bar,Bar Vulcano,+34934591053,fijo,,,,,Carrer de la Llibertat 43,,,,2026-06-28,41.40051,2.1622329
bar,BierCaB,,,,,,https://biercab.com/,Muntaner 55,,,,2026-06-28,41.3862283,2.1597509
bar,Bar La Masia,+34931279618,fijo,,,,,Carrer d'Elisabets 16,08001,Barcelona,Mo-Sa 11:00-23:00,2026-06-28,41.3832372,2.1683172
bar,Twice,+34931422942,fijo,,,,,Carrer d'Aribau 212,,,Mo-Fr 07:00-18:00; Fr-Sa 23:30-03:00,2026-06-28,41.39489,2.1509231
bar,Bubar,+34675701049,movil,,,,,Carrer de Wellington 52,08005,,,2026-06-28,41.3909909,2.187867
bar,Lounge Restaurant,,,airbarpoblenou@hotmail.com,True,osm,,Carrer de Pere IV 61,08018,,,2026-06-28,41.3963512,2.1922632
bar,ArteSants,+34934320768,fijo,,,,,Carrer del Guadiana 8,08014,Barcelona,"Tu,We,Th,Su 17:00-00:00; Fr,Sa 17:00-03:00",2026-06-28,41.3749282,2.1390366
bar,Ve De Gust,+34936272327,fijo,,,,https://h5.clewm.net/?url=qr61.cn%2Fo1Ua8r%2FqI3ey4g&hasredirect=1,,08005,,"Sa 09:00-00:30; Mo, We-Th 08:00-23:00; Fr 08:00-00:30; Su 09:00-23:00; Tu 08:00-16:00",2026-06-28,41.3930591,2.1899199
bar,Estraperlo Barceloneta,+34932218564,fijo,,,,,Carrer de l'Atlàntida 65,08003,Barcelona,"Th,Fr 20:00-00:00; Sa,Su 13:00-16:00,20:00-00:00",2026-06-28,41.379154,2.1901117
bar,Rias do Miño,+34932217137,fijo,,,,,Carrer de Pepe Rubianes,,,,2026-06-28,41.3789324,2.1917455
bar,Karamba,+34934535012,fijo,,,,,Carrer d'Enric Granados 202,,,Tu-Th 17:30-00:30; Fr 17:30-01:00; Sa 12:00-01:00; Su 12:00-00:00,2026-06-28,41.3902959,2.1580769
bar,COYOTE D7 POOL,+34669405530,movil,,,,,Carrer del Comte d'Urgell 182,08036,Barcelona,,2026-06-28,41.3873567,2.1520576
bar,El Pollo,+34611166276,movil,,,,,Carrer del Tigre 31,,,"We, Th 18:30-01:00; Fr-Su 12:30-02:00",2026-06-28,41.3821716,2.1640706
bar,Pez Bruja,,,,,,https://www.pezbruja.es,Carrer del Progrés 38,,,We-Sa 21:30-02:00,2026-06-28,41.4004487,2.1598594
bar,Destápate,+34933483492,fijo,,,,,Carrer del Masnou 27,08014,Barcelona,Tu-Sa 12:00-23:59; Fr-Su 00:00-02:00;Su 12:00-23:00,2026-06-28,41.3760818,2.1402239
bar,El Villa — Vermuteria del mar,,,info@elvillavermuteria.com,True,website,https://elvillavermuteria.com/,,08012,,We-Fr 18:00-00:00; Sa 12:00-00:00; Su 12:00-18:00,2026-06-28,41.3996132,2.1592608
bar,Bar Endor,+34938099574,fijo,,,,,Carrer de Copèrnic 51,08006,,,2026-06-28,41.4010299,2.140719
bar,Casa Julio,+34933282329,fijo,,,,,Carrer de Sant Germà 18,08004,,Mo-Fr 07:30-16:00; Sa 12:00-16:00,2026-06-28,41.3716464,2.1465965
bar,Rosa Barcelona,+34911677444,fijo,,,,,Carrer de Floridablanca 88,08015,Barcelona,"Tu,We 17:00-23:00, Th-Sa 17:00-01:00, Su 13:00-21:00",2026-06-28,41.3788706,2.1592458
bar,El Vintidós,+34930314861,fijo,,,,,Carrer de Tànger 22,08018,Barcelona,,2026-06-28,41.3991552,2.1885
bar,Bar los Pinos,+34650052651,movil,,,,,Carrer de la Lírica 1,08035,Barcelona,Mo-We 07:30-15:00; Th off; Fr 07:30-15:00; Sa-Su 08:30-15:00,2026-06-28,41.432995,2.1432326
bar,La Cobra,,,,,,https://lacobrabar.tumblr.com/,Carrer de Joaquín Costa 47,08001,,,2026-06-28,41.3829313,2.1652706
bar,Voyager Cocktail Bar | by COBA,,,info@groupcoba.com,True,osm,,Carrer del Comte d'Urgell 115,08011,Barcelona,Mo-Su 18:00-02:30,2026-06-28,41.3848931,2.1547206
bar,Cal Soci,+34930298912,fijo,,,,,Carrer de Viladomat 27,08015,,Tu-Fr 19:00-02:30; Sa 13:30-03:00; Su 13:30-17:00,2026-06-28,41.3763829,2.1614216
bar,Bar Restaurante Fortuna,+34934517060,fijo,,,,,Avinguda de Roma 110,08015,,Mo-Th 08:30-00:00; Fr 08:30-01:00; Sa 10:00-01:00; Su 10:00-00:00,2026-06-28,41.3843829,2.1528649
bar,La Centena,+34612428356,movil,,,,,Carrer de Campo Florido 13B,08027,Barcelona,"Su-Th 14:00-22:00; Fr,Sa 14:30-02:00",2026-06-28,41.4213781,2.1821412
bar,MONARQ Tapas & Grill Barceloneta,+34632126949,movil,,,,,28 Passeig de Joan de Borbó,08003,Barcelona,,2026-06-28,41.3791887,2.1879918
bar,Perlazul Tapas & Grill Barceloneta,+34632126949,movil,,,,,68 Passeig de Joan de Borbó,08003,Barcelona,,2026-06-28,41.3759781,2.1892578
bar,Henry‘s Bar,+34933007695,fijo,,,,,Carrer de la Llacuna 92,08018,,,2026-06-28,41.4027338,2.1969691
bar,MASA,,,,,,https://masavins.com/barcelona/,Carrer de Pallars,,,,2026-06-28,41.3991289,2.195278
bar,Chiribito,,,,,,,Passeig de Fabra i Puig 266,08031,,,2026-06-28,41.4304493,2.1743213
bar,La Fourmi,,,,,,,Carrer de Milà i Fontanals,08012,,,2026-06-28,41.4019257,2.1616543
bar,Incognito Bar,,,,,,,Carrer de la Fusina 6,,,,2026-06-28,41.3865807,2.1836862
bar,Zim,,,,,,,Carrer de la Dagueria 20,08002,,Mo-Su 18:00-23:00,2026-06-28,41.3830486,2.178292
bar,L'Ovella Negra,,,,,,,Carrer de les Sitges 5,,,,2026-06-28,41.3844667,2.1695575
bar,La Penúltima,,,,,,,Carrer de la Riera Alta 40,08001,Barcelona,,2026-06-28,41.380488,2.1647648
bar,Napoca,,,,,,,Carrer de Muntaner 134,,,,2026-06-28,41.3900829,2.1551066
bar,Travel Bar,,,,,,,Carrer de la Boqueria 27,,,,2026-06-28,41.381599,2.1744854
bar,Bar Mirinda,,,,,,,Carrer d'en Xuclà 7,08001,Barcelona,,2026-06-28,41.3830229,2.1706642
bar,La llavor dels origens,,,,,,,Carrer de Ramón y Cajal 12,,Barcelona,,2026-06-28,41.402144,2.1579689
bar,Bar Teo,,,,,,,Diagonal,,,,2026-06-28,41.393729,2.149521
bar,la Clotxa,,,,,,,Carrer del Torrent de l'Olla 121,08012,,,2026-06-28,41.4027501,2.1564138
bar,La Pausa,,,,,,,Carrer de València 196,,,,2026-06-28,41.3881689,2.1576582
bar,Bar Trattoria El Pepino,,,,,,,Carrer de Tordera 33,08012,,,2026-06-28,41.4016682,2.1614481
bar,Raïm,,,,,,,Carrer de Siracusa 4,08012,,We-Sa 21:00-02:30,2026-06-28,41.4007753,2.1594619
bar,Bar Gracia's,,,,,,,Carrer del Torrent de l'Olla 74,,,,2026-06-28,41.4006626,2.1591814
bar,Gat Negre,,,,,,,Carrer de Sant Lluís 47,,,,2026-06-28,41.4055038,2.160265
bar,Ítaca,,,,,,,Carrer de Santa Rosa 14,,Barcelona,,2026-06-28,41.4033419,2.1534796
bar,Diamant,,,,,,,Carrer d'Astúries 67,,Barcelona,,2026-06-28,41.4042174,2.1555899
bar,El Sabor,,,,,,,Carrer de Sardenya 403,,Barcelona,,2026-06-28,41.4073794,2.1678414
bar,La Catrina,+34935308087,fijo,,,,,,,,,2026-06-28,41.3971799,2.1817149
bar,Bar Bilbilis,,,,,,,Avinguda de Rio de Janeiro 9,08016,,,2026-06-28,41.430896,2.1818758
bar,Madame Jasmine,,,,,,,Rambla del Raval 22,,Barcelona,Mo-Th 17:00-02:30; Fr-Sa 17:00-03:00; Su 19:00-02:30,2026-06-28,41.3779772,2.1696941
bar,San Basilio BCN,,,,,,,Avinguda Diagonal 337,08037,,,2026-06-28,41.3983766,2.1678633
bar,Puerto Hurrako,,,,,,,Taulat 76,08005,,,2026-06-28,41.4000046,2.20645
bar,Thales,,,,,,,Carrer de la Ciutat 8,08002,,,2026-06-28,41.3818693,2.1782832
bar,Café Bar R-207,,,,,,,Carrer del Rosselló,08008,Barcelona,,2026-06-28,41.3927554,2.1564351
bar,Taverna Blai Tonight,,,,,,,Carrer de Blai 23,,Barcelona,,2026-06-28,41.3735656,2.164687
bar,Bar Bodega Bartolí,,,,,,,Carrer del Vallespir 41,,,Mo-Fr 07:00-21:30; Sa 08:00-15:00,2026-06-28,41.3793105,2.1370157
bar,Café Adonis 1940,,,,,,,Carrer de Bailèn 188,08037,Barcelona,,2026-06-28,41.4012594,2.1650904
bar,Cerbeseria Lesseps,,,,,,,Carrer del Torrent de l'Olla,,,,2026-06-28,41.4073551,2.1514486
bar,Restaurant Pipa,,,,,,,Carrer de Llull 159,,,Mo-Su 12:30-00:00,2026-06-28,41.3997461,2.2003004
bar,Beercelona bar,,,,,,,Rambla de Poblenou 118,,,,2026-06-28,41.40326,2.1985353
bar,Colombo,,,,,,,Passeig de Picasso 26,,,,2026-06-28,41.3867234,2.1839669
bar,Blondie Bar,,,,,,,Carrer Roca 14,,,,2026-06-28,41.3823214,2.1730348
bar,Riff Rock Bar,,,,,,,Costa i Cuxart 33,08016,,,2026-06-28,41.428232,2.1759583
bar,Musical Maria,,,,,,,Carrer de Maria,,,,2026-06-28,41.399127,2.1570891
bar,Manchester Bar,,,,,,,Carrer de Milans 5,08002,,"Mo-Su 00:00-02:30,18:30-24:00; Fr,Sa 00:00-03:00,18:30-24:00",2026-06-28,41.3806481,2.1789874
bar,Ryans Irish Pub,,,,,,,Carrer Ample 28,08002,,,2026-06-28,41.3804015,2.1800772
bar,L'Electricitat,,,,,,,Carrer de Sant Carles 15,08003,Barcelona,,2026-06-28,41.379349,2.190017
bar,Leo,,,,,,,Carrer de Sant Carles 34,08003,Barcelona,,2026-06-28,41.379481,2.19093
bar,La Casa de la Pradera,,,,,,,Carrer de les Carretes 57,,Barcelona,Th 19:00-02:00; Fr-Sa 19:00-03:00; Su 17:30-23:30,2026-06-28,41.3770172,2.168176
bar,Doña Rosa,,,,,,,Plaça dels Àngels 27,,,Mo-Th 10:30-00:00; Fr 10:30-01:00; Sa 10:00-01:00; Su 10:00-00:00,2026-06-28,41.3825502,2.16647
bar,Ámbar,+34628087401,movil,,,,,,,,,2026-06-28,41.3777666,2.1707826
bar,Opium,,,,,,,Passeig Marítim de la Barceloneta 34,08003,Barcelona,,2026-06-28,41.3852778,2.1967099
bar,El Capritx,,,,,,,Rambla del Poblenou 100,,,,2026-06-28,41.4022886,2.1998883
bar,La Vermuteria del Tano,,,,,,,Carrer de Joan Blanques 17,,,,2026-06-28,41.4046804,2.1608671
bar,Ceferino,,,,,,,Carrer de Pamplona 88,08018,Barcelona,,2026-06-28,41.3972585,2.1916091
bar,le cinquante huit,,,,,,,Rambla del Poblenou 58,08005,Barcelona,,2026-06-28,41.4004427,2.2022947
bar,Ideal,,,,,,,Carrer de Marià Aguiló 99,,Barcelona,,2026-06-28,41.4009194,2.2037905
bar,Clot76,,,,,,,Carrer del Clot 76,08018,Barcelona,,2026-06-28,41.4082815,2.1885259
bar,El refugio de los 33,,,,,,,Plaça del Mercat 19,,Barcelona,,2026-06-28,41.4075568,2.1891002
bar,Barcelona Pipa Club,,,,,,,Plaça Reial 3,,,Mo-Su 23:00-04:00,2026-06-28,41.3801259,2.1746721
bar,Marmalade,,,,,,,Carrer de la Riera Alta 4-6,08001,Barcelona,,2026-06-28,41.3806296,2.167222
bar,Zelig,,,,,,,Carrer del Carme 116,08001,Barcelona,,2026-06-28,41.3797882,2.1662643
bar,Bar Olimpia,,,barolimpiabarcelona@gmail.com,True,osm,,,,,,2026-06-28,41.3758411,2.1660642
bar,Jonny Aldana,,,,,,https://www.jonnyaldana.com/,,,,,2026-06-28,41.3757556,2.1659373
bar,Boxer Bar,,,,,,,Carrer de la Diputació 167,,Barcelona,We 18:00-01:30; Th 18:00-02:00; Fr-Sa 18:00-03:00; So 18:00-01:30,2026-06-28,41.3847826,2.1592727
bar,Bar Boente,,,,,,,Gran Via de les Corts Catalanes 748,,,,2026-06-28,41.3973905,2.1794099
bar,AP La Bugadera,,,,,,,Plaça d'Eivissa 17,,,,2026-06-28,41.4307448,2.1610024
bar,Los Panda Lounge,,,,,,,Carrer de la Independència 362,,,,2026-06-28,41.4117301,2.1784624
bar,Bar Calders,,,,,,,Carrer del Parlament 25,,,,2026-06-28,41.3764788,2.1623937
bar,Can Liu,,,,,,,Carrer de la Selva de Mar 49,08019,Barcelona,,2026-06-28,41.4092369,2.2081245
bar,El Carro Gros,,,,,,,Plaça del Sortidor 14,,,,2026-06-28,41.3722112,2.1626716
bar,El Encuentro,,,,,,,Blai 2,,,,2026-06-28,41.372858,2.1668082
bar,Spin Bites,,,,,,,Carrer de Salvà 22,,,,2026-06-28,41.3739672,2.1662116
bar,Bar barcelona,,,,,,,Carrer de Sardenya 292,08013,Barcelona,,2026-06-28,41.4016882,2.1757519
bar,Cèntric,,,,,,,Carrer de Bailèn 187,08037,Barcelona,,2026-06-28,41.4015434,2.1643351
bar,Rubi Bar,,,,,,,Carrer dels Banys Vells 6,,,,2026-06-28,41.3845299,2.1805557
bar,Can Chen,,,,,,,Plaça d'Alfons el Savi 2,,,,2026-06-28,41.4122341,2.1644891
bar,Xixbar,,,,,,,Carrer de Rocafort 19,08015,Barcelona,,2026-06-28,41.3758485,2.1576176
bar,Pi-Ka-Ko,,,,,,,Carrer d'Aragó 341,,,,2026-06-28,41.3969644,2.1709338
bar,Cerveceria La Surena,,,,,,,Carrer dels Tallers 70,,,,2026-06-28,41.3850373,2.1662783
bar,Paspartu,,,,,,,Carrer de les Basses de Sant Pere 10,,,,2026-06-28,41.3886077,2.1801454
bar,Xurreria L'àvia,,,,,,,Olzinelles 15,08014,Barcelona,,2026-06-28,41.3737883,2.1365138
bar,Shenanigans Irish Pub,,,,,,,Carrer del Marquès de Barberà,,,,2026-06-28,41.3787719,2.1724896
bar,El 68,,,,,,,Carrer de Milà i Fontanals 68,,,,2026-06-28,41.4023622,2.1612062
bar,Donildo,,,,,,,Carrer de Buenos Aires 4,,,,2026-06-28,41.3909265,2.1452061
bar,First bar,,,,,,,Carrer d'en Rauric 9,,,,2026-06-28,41.3809266,2.1754554
bar,La Resistència,,,,,,,Carrer de Viladomat 107,,,,2026-06-28,41.3796808,2.1568783
bar,Eclipse at the W,,,,,,,Passeig Mare Nostrum,,,,2026-06-28,41.3688974,2.1901038
bar,El Bombón,,,,,,,Carrer de la Mercè 13,08002,,,2026-06-28,41.380071,2.1801819
bar,Ale&Hop,,,,,,,Carrer de les Basses de Sant Pere 10,,,Mo-We 17:00-01:30; Th 17:00-02:30; Fr 17:00-03:00; Sa 13:00-03:00; Su 13:00-01:30,2026-06-28,41.3886068,2.1801679
bar,PinchoJ,,,,,,,Carrer de Blai 26,,Barcelona,,2026-06-28,41.3737336,2.1646232
bar,Gran Bodega Saltó,,,,,,,Carrer de Blesa 36,08004,,,2026-06-28,41.3727493,2.167178
bar,Switch Pocket Club,,,,,,,Carrer de Francisco Giner 24,,,,2026-06-28,41.3991715,2.1592621
bar,Cafeteria-Restaurant Sandra,,,,,,,Carrer de Còrsega 178,,,,2026-06-28,41.3895849,2.150335
bar,Checkpoint Arcade,,,,,,,Carrer de Bailèn 43,,,,2026-06-28,41.3936112,2.1747834
bar,Club Swinger Charlie Privée,,,,,,,Carrer de Josep Estivill 32,,,,2026-06-28,41.4175581,2.1875652
bar,Bar La Bota,,,,,,,Carrer de la Font Honrada 23 23,,,,2026-06-28,41.3730845,2.1671134
bar,Cactus Bar,,,,,,,Passeig del Born 30,08003,,,2026-06-28,41.3848364,2.1830531
bar,Moog,,,,,,,Carrer de l'Arc del Teatre 3,08001,,,2026-06-28,41.3780728,2.1750758
bar,La Fira,,,,,,,Carrer de Provença 171,08036,Barcelona,,2026-06-28,41.3904363,2.1556181
bar,Bar Granja L'Espill,,,,,,,Rambla de Prim 145,08020,,,2026-06-28,41.4209184,2.2056829
bar,Dionisos,,,,,,,Carrer de n'Arai 3,,,,2026-06-28,41.38047,2.1770302
bar,Bar Lisa,,,,,,,Carrer de n'Arai 3,,,,2026-06-28,41.3805356,2.1770355
bar,Maumau,,,,,,,Carrer d'en Fontrodona 35,,,,2026-06-28,41.3722035,2.1663962
bar,Bar Eric's,,,,,,,Avinguda de Sant Ramon Nonat 32,,,,2026-06-28,41.3772622,2.1168539
bar,LUTE Bar & Bowls,,,,,,,Carrer de Sant Medir 9,08028,Barcelona,,2026-06-28,41.3742634,2.1332024
bar,Stromboli,,,,,,,Carrer de l'Àliga 25,08014,Barcelona,,2026-06-28,41.3740397,2.1432302
bar,número nueve,,,,,,,Carrer de la Vidrieria 9,,,,2026-06-28,41.3841403,2.1829077
bar,Raspall,,,,,,,Plaça del Raspall 8,08012,,"Mo-Th 18:30-02:00; Fr 12:00-16:00, 18:30-02:30; Sa 12:00-02:30; Su 12:00-02:00",2026-06-28,41.401192,2.1605852
bar,Kulas,,,,,,,Passeig de Colom 7,08002,,,2026-06-28,41.3804417,2.1809918
bar,Montferry,,,,,,,Carrer de Las Navas de Tolosa,08027,,,2026-06-28,41.4125412,2.1902351
bar,L'Antiquari,,,,,,,Carrer del Veguer 13,,,,2026-06-28,41.3839256,2.1774566
bar,La Chapelle,,,,,,,Carrer de Muntaner 67,,Barcelona,Mo-Su 16:00-03:00,2026-06-28,41.386746,2.1590623
bar,Gracia Latina,,,,,,,Carrer de l'Or 19,,,"PH,Fr,Sa 19:00-03:00; Su-Th 19:00-02:30",2026-06-28,41.4044763,2.1568671
bar,Bar chicho,,,,,,,Avenida Republica Argentina,08023,Barcelona,,2026-06-28,41.4115546,2.1414773
bar,La Lia de'n Vicius,,,,,,,Carrer de Blai 28,,,,2026-06-28,41.373837,2.1643515
bar,Casa López,,,,,,,Carrer de Topazi,,Barcelona,,2026-06-28,41.4047191,2.1550626
bar,Space Cowboy,,,,,,,Carrer dels Carders 31,,,,2026-06-28,41.3869809,2.1802947
bar,Espit Chupitos,,,,,,,Passeig de Colom 8,08002,,,2026-06-28,41.3803151,2.1808841
bar,Entrepanes Díaz,,,,,,,Carrer de Pau Claris 189,,Barcelona,,2026-06-28,41.3972943,2.1609117
bar,Carlos and Mathilda,,,,,,,Baixada de Viladecols 6,08002,,,2026-06-28,41.3818238,2.1797544
bar,IMPRFCTO maison surrealist,,,,,,,Avinguda del Paral·lel,,,,2026-06-28,41.3751878,2.1645189
bar,La Gilda,,,,,,,Carrer de Girona 173,08037,,,2026-06-28,41.3995758,2.1646553
bar,Bodega Luis,,,,,,,Carrer de la Renaixença 52,08041,Barcelona,,2026-06-28,41.4179831,2.1772893
bar,Bar Borrell,,,,,,,Avinguda del Paral·lel 84,,,,2026-06-28,41.3751759,2.1668331
bar,El Racó de Sants,,,,,,,Carrer del Guadiana 6,08014,Barcelona,,2026-06-28,41.3751172,2.1390006
bar,Bar Ribalda,+34934173079,fijo,,,,,,,,Mo-Fr 07:30-23:00; Sa 08:30-14:30,2026-06-28,41.4026552,2.1328307
bar,Bar El Buscatrufas,,,,,,,Gran Via de les Corts Catalanes 674,,Barcelona,,2026-06-28,41.3920065,2.1721506
bar,Maragall 78,,,,,,,Passeig de Maragall 78,,,,2026-06-28,41.4185801,2.180734
bar,Jalisco,,,,,,,Carrer de la Indústria 197,,,,2026-06-28,41.4114097,2.1766443
bar,Bar l'Amistat,,,,,,,Carrer de Torrijos 13,08012,Barcelona,,2026-06-28,41.4029059,2.1592402
bar,Bar Pietro,,,,,,,Travessera de Gràcia 197,08012,Barcelona,Mo 08:00-15:00; Tu-Sa 08:00-23:00; Su 11:00-17:00,2026-06-28,41.4025961,2.159745
bar,Gent del Barri,,,,,,,Carrer de Rogent 25,,,,2026-06-28,41.4091439,2.184618
bar,Two Schmuks,,,,,,,Plaça Emili Vendrell 1,08001,Barcelona,,2026-06-28,41.3812476,2.1668432
bar,La Gratitud,,,,,,,Carrer del Torrent de l'Olla 48,08012,Barcelona,We 19:00-01:00; Th 19:00-01:30; Fr-Sa 19:30-02:30,2026-06-28,41.3998511,2.1600282
bar,Shôko,,,,,,,Carrer de Ramon Trias Fargas 2,08005,,Mo-Su 12:00-03:00,2026-06-28,41.3853718,2.1971997
bar,BAR AGUA MARINA,,,,,,,Vial Moll Adossat 64,08039,Barcelona,,2026-06-28,41.3594025,2.1794835
bar,Bar Colombo,,,,,,,Carrer de l'Escar 4,08039,Barcelona,,2026-06-28,41.3757705,2.1885017
bar,Urbion,,,,,,,Carrer de Garcilaso 182,,,,2026-06-28,41.4236244,2.1806093
bar,La Pantera Rosa,,,,,,,Carrer de Berga 34,08012,,,2026-06-28,41.4010493,2.1525903
bar,El Rusc,,,,,,,Carrer de Rabassa 39,,Barcelona,Mo-Sa 19:00-02:00; Su 19:00-01:00,2026-06-28,41.4081602,2.1574261
bar,Speed 58,,,,,,,Carrer del Torrent de les Flors 43,,,,2026-06-28,41.4059084,2.1604518
bar,Bodega Manolo,,,,,,,Carrer del Torrent de les Flors 101,,,,2026-06-28,41.4080783,2.1582624
bar,El Col·leccionista,,,,,,,Carrer del Torrent de les Flors 46,08024,,Th-Sa 21:00-03:00,2026-06-28,41.4059162,2.1606083
bar,Inch,,,,,,,Carrer de l'Escorial 117,,,,2026-06-28,41.4083753,2.1601301
bar,Navia 2,,,,,,,"Carrer de l'Escorial 11,13",,,,2026-06-28,41.4061628,2.1622541
bar,Bodega Costa Brava,,,,,,,Carrer de l'Alzina 58,,,,2026-06-28,41.4077693,2.1552242
bar,Illuminati,,,,,,,Carrer de l'Alzina 46,,Barcelona,,2026-06-28,41.407315,2.1556575
bar,Bertso Taberna,,,,,,,Carrer de Verdi 138,,,,2026-06-28,41.4073699,2.1534425
bar,Rey del Mojito,,,,,,,Carrer del Call 11,08002,,,2026-06-28,41.3821981,2.1758384
bar,Bar Restaurante Oliver,,,,,,,Passeig de l'Agrícola,,,,2026-06-28,41.3469215,2.1546925
bar,El Got,,,,,,,Carrer de Sant Salvador,,,,2026-06-28,41.4084378,2.1562229
bar,Bobby Gin,,,,,,,Carrer de Francisco Giner 47,,,,2026-06-28,41.3998911,2.1581751
bar,Bodega Cal Pep,,,,,,,Carrer de Verdi 141,,,"Mo-Fr 07:00-16:00; Mo-We 18:00-23:00; Th,Fr 18:00-01:30; Sa 12:00-16:00",2026-06-28,41.4068358,2.1537705
bar,Verdi dinou,,,,,,,Carrer de Verdi 19,,,,2026-06-28,41.403589,2.157066
bar,Entre Hores,,,,,,,Carrer de Verdi 6,,,,2026-06-28,41.4030943,2.1577829
bar,Woody,,,,,,,Plaça del Sol,,,,2026-06-28,41.4017822,2.1569752
bar,Tapazia,,,,,,,Carrer de Topazi,,,,2026-06-28,41.4048898,2.1550603
bar,El Rincón,,,,,,,Avinguda de la República Argentina 162,,,,2026-06-28,41.4116329,2.142679
bar,Spritz,,,,,,,Carrer de la Tapineria 8,08002,,,2026-06-28,41.3846098,2.1772919
bar,Boria,,,,,,,Carrer de la Bòria,,,,2026-06-28,41.3847262,2.1789496
bar,Bar 340,,,,,,,Carrer de Biscaia,08027,Barcelona,,2026-06-28,41.415065,2.1896641
bar,Tower bar,,,,,,,Plaça de la Llana,,,,2026-06-28,41.3849827,2.1791939
bar,Salseta del Clot,,,,,,,Carrer d'Espronceda,,,,2026-06-28,41.4156111,2.1907072
bar,Bodega la Taberna,,,,,,,Carrer de Las Navas de Tolosa,,,,2026-06-28,41.4134452,2.1895948
bar,El Nou CloTiberi,,,,,,,Carrer del Clot,,,,2026-06-28,41.4090397,2.1888164
bar,La Catalana,,,,,,,Carrer de Pau Alsina,,,,2026-06-28,41.4098824,2.1623858
bar,Rafa,,,,,,,Carrer de les Camèlies,,,,2026-06-28,41.4132326,2.1632293
bar,Bodega Berlanga,,,,,,,Carrer de Ferlandina 39,08001,,Mo-Sa 18:00-02:30,2026-06-28,41.3825733,2.165664
bar,Mesón del Café,,,,,,,Carrer de la Llibreteria 16,08002,,,2026-06-28,41.3832429,2.1775174
bar,Bar Brusi,,,,,,,Carrer de la Llibreteria 23,08002,,,2026-06-28,41.3834934,2.1776063
bar,Soda Acústic,,,,,,,Carrer de les Guilleries,,,,2026-06-28,41.4030198,2.1570878
bar,Delas,,,,,,,Carrer de València 554,,,,2026-06-28,41.4070677,2.1827567
bar,Casa Ángel,,,,,,,Carrer del Dos de Maig 239,,,,2026-06-28,41.4070235,2.1818566
bar,Bar Cafeteria Borrell,,,,,,,Carrer del Comte Borrell 69,08015,,Mo-Th 09:00-23:00; Fr-Sa 10:00-23:30; Su 12:00-22:30,2026-06-28,41.3780666,2.1614839
bar,Bauma,,,,,,,Carrer de Roger de Llúria 124,08037,,,2026-06-28,41.3978535,2.1627843
bar,El Chiringuito Bar,,,,,,,Carrer de Còrsega 344-352,08037,,,2026-06-28,41.3981841,2.1617222
bar,Coloma,,,,,,,Carrer de Pau Alsina,,,,2026-06-28,41.4091036,2.1632227
bar,Calderón,,,,,,,Carrer de Pi i Margall,,,,2026-06-28,41.4075212,2.1637628
bar,Tro-BAR-se,,,,,,,Carrer de Felip II,,,,2026-06-28,41.4197405,2.1874968
bar,Granja Bar Gero's,,,,,,,Carrer de Felip II,,,,2026-06-28,41.4197188,2.1875249
bar,La Giralda,,,,,,,Carrer de Felip II,,,,2026-06-28,41.4194132,2.1879316
bar,2veinte,,,,,,,Avinguda Meridiana,,,,2026-06-28,41.4160433,2.1872689
bar,Frankfurt Monfort,,,,,,,Carrer de Pi i Margall 15,,,,2026-06-28,41.4065794,2.1630872
bar,Máximo,,,,,,,Carrer d'Espronceda,,,,2026-06-28,41.4175801,2.1884489
bar,Bodega J. Cala,,,,,,,Carrer de Pere IV 460,08005,Barcelona,Tu-Su 10:30-16:00,2026-06-28,41.4139281,2.20632
bar,La Alcoba Azul,,,,,,,Carrer de Sant Domènec del Call 14,08002,,,2026-06-28,41.3828913,2.175531
bar,Gredos,,,,,,,Passeig de Sant Joan 111B,,,,2026-06-28,41.4000239,2.1681962
bar,Porto Bello,,,,,,,Ronda de Sant Pau,,,,2026-06-28,41.3781483,2.1641011
bar,Bodega E. Marin,,,,,,,Carrer de Milà i Fontanals 72,08012,,"Mo-Fr 07:00-15:00, 17:00-22:00; Sa 08:00-15:00",2026-06-28,41.4025586,2.1609645
bar,Nova Camèlies,,,,,,,Carrer de les Camèlies 21,,,,2026-06-28,41.4113922,2.1595137
bar,Sasha Bar 1968,,,,,,,Carrer de Margarit 18,08004,Barcelona,,2026-06-28,41.3738144,2.1635577
bar,Ancestral,,,,,,,Carrer de Provença 340,08037,,,2026-06-28,41.3977332,2.1656576
bar,Lamenuda,,,,,,,Carrer de Provença 318,08037,,,2026-06-28,41.396386,2.1638388
bar,Paradiso,,,,,,,Carrer de Rere Palau 4,08003,,Mo-Su 17:00-02:30,2026-06-28,41.3836737,2.1837007
bar,María Castaña,,,,,,,Via Augusta 53,,,,2026-06-28,41.3982284,2.1532679
bar,Bar-celona,,,,,,,Carrer del Segle XX,,,,2026-06-28,41.4227174,2.1774511
bar,Bär Sant Pere,,,,,,,Carrer de Sant Pere Més Alt 28,08003,Barcelona,,2026-06-28,41.3880755,2.1763052
bar,Bar Joan's,,,,,,,Carrer de Cantàbria 10,,,,2026-06-28,41.4184887,2.2037165
bar,Entre Tapes,,,,,,,Carrer de Balmes 194,08006,Barcelona,,2026-06-28,41.3970702,2.152656
bar,Bar Jorepa,,,,,,,Rambla de Prim 92-94,08019,,,2026-06-28,41.4163093,2.2131844
bar,La Taberna del ESPIT,,,,,,,carrer d'Aribau 81,,,,2026-06-28,41.3894369,2.1578033
bar,ESPIT Chupitos,,,,,,,Carrer d'Aribau 77,,,,2026-06-28,41.3893622,2.1579106
bar,DECODE,,,,,,,Carrer d'Aribau 97,,,,2026-06-28,41.3901812,2.1567173
bar,4 latas,,,,,,,Carrer de Muntaner 212,,,,2026-06-28,41.3935465,2.1504991
bar,L'ideal,,,,,,,Carrer Gran de Sant Andreu,,,,2026-06-28,41.4279119,2.1906334
bar,Two Schmucks,,,,,,,Carrer de Joaquín Costa,,,,2026-06-28,41.3831249,2.1652703
bar,Vesta,,,,,,,Carrer de la Indústria 8,08037,Barcelona,,2026-06-28,41.402071,2.1647815
bar,Caribbean Club Cocktail Bar,,,,,,,Carrer de les Sitges,,,,2026-06-28,41.3843987,2.1696272
bar,Bodega Casas,,,,,,,Carrer de la Providència 91,,,,2026-06-28,41.4083681,2.1597307
bar,Mariatchi,,,,,,,Carrer dels Còdols 14,08002,,,2026-06-28,41.3796837,2.1780016
bar,El bar del CAT,,,,,,,Travessia de Sant Antoni,,,,2026-06-28,41.4024389,2.1545219
